{"type":"FeatureCollection","features": [{"type": "Feature", "id":0, "properties": {"SourceCode":"SnowCourse","StationName":"LUBRECHT HYDROPLOT","StationCode":"13C37","StationID":"35485","CDBCode":"CDB_S_35485","StateName":"Montana"},"geometry": { "type": "Point","coordinates": [-113.367,46.8667]}},{"type": "Feature", "id":1, "properties": {"SourceCode":"SnowCourse","StationName":"MANY GLACIER","StationCode":"13A27","StationID":"35487","CDBCode":"CDB_S_35487","StateName":"Montana"},"geometry": { "type": "Point","coordinates": [-113.667,48.8]}},{"type": "Feature", "id":2, "properties": {"SourceCode":"SnowCourse","StationName":"NEZ PERCE CREEK","StationCode":"12C10","StationID":"35504","CDBCode":"CDB_S_35504","StateName":"Montana"},"geometry": { "type": "Point","coordinates": [-112.35,46.1]}},{"type": "Feature", "id":3, "properties": {"SourceCode":"SnowCourse","StationName":"PICKFOOT CREEK","StationCode":"11C02","StationID":"35521","CDBCode":"CDB_S_35521","StateName":"Montana"},"geometry": { "type": "Point","coordinates": [-111.267,46.5667]}},{"type": "Feature", "id":4, "properties": {"SourceCode":"SnowCourse","StationName":"ROCK CREEK MEADOW","StationCode":"11D21","StationID":"35535","CDBCode":"CDB_S_35535","StateName":"Montana"},"geometry": { "type": "Point","coordinates": [-111.067,45.1667]}},{"type": "Feature", "id":5, "properties": {"SourceCode":"SnowCourse","StationName":"SACAJAWEA","StationCode":"10D10","StationID":"35538","CDBCode":"CDB_S_35538","StateName":"Montana"},"geometry": { "type": "Point","coordinates": [-110.917,45.8667]}},{"type": "Feature", "id":6, "properties": {"SourceCode":"SnowCourse","StationName":"STAHL PEAK","StationCode":"14A12","StationID":"35553","CDBCode":"CDB_S_35553","StateName":"Montana"},"geometry": { "type": "Point","coordinates": [-114.867,48.9167]}},{"type": "Feature", "id":7, "properties": {"SourceCode":"SnowCourse","StationName":"TIZER BASIN","StationCode":"11C04","StationID":"35570","CDBCode":"CDB_S_35570","StateName":"Montana"},"geometry": { "type": "Point","coordinates": [-111.85,46.35]}},{"type": "Feature", "id":8, "properties": {"SourceCode":"SnowCourse","StationName":"TRINKUS LAKE","StationCode":"13B01","StationID":"35572","CDBCode":"CDB_S_35572","StateName":"Montana"},"geometry": { "type": "Point","coordinates": [-113.75,47.95]}},{"type": "Feature", "id":9, "properties": {"SourceCode":"SnowCourse","StationName":"WHITE PINE RIDGE","StationCode":"12E01","StationID":"35587","CDBCode":"CDB_S_35587","StateName":"Montana"},"geometry": { "type": "Point","coordinates": [-112.717,44.6167]}},{"type": "Feature", "id":10, "properties": {"SourceCode":"SnowCourse","StationName":"STEVENS PASS","StationCode":"21B01","StationID":"35970","CDBCode":"CDB_S_35970","StateName":"Washington"},"geometry": { "type": "Point","coordinates": [-121.067,47.7167]}},{"type": "Feature", "id":11, "properties": {"SourceCode":"SnowCourse","StationName":"STICKNEY RIDGE","StationCode":"21B58","StationID":"35972","CDBCode":"CDB_S_35972","StateName":"Washington"},"geometry": { "type": "Point","coordinates": [-121.617,47.9167]}},{"type": "Feature", "id":12, "properties": {"SourceCode":"SnowCourse","StationName":"WILLAME CREEK (DISC)","StationCode":"21C30","StationID":"36006","CDBCode":"CDB_S_36006","StateName":"Washington"},"geometry": { "type": "Point","coordinates": [-121.8,46.6167]}},{"type": "Feature", "id":13, "properties": {"SourceCode":"SnowCourse","StationName":"BARLEY CAMP AM","StationCode":"20G23","StationID":"36020","CDBCode":"CDB_S_36020","StateName":"Oregon"},"geometry": { "type": "Point","coordinates": [-120.117,42.0167]}},{"type": "Feature", "id":14, "properties": {"SourceCode":"SnowCourse","StationName":"CALIBAN (ALT.)","StationCode":"22G34","StationID":"36056","CDBCode":"CDB_S_36056","StateName":"Oregon"},"geometry": { "type": "Point","coordinates": [-122.717,42.0667]}},{"type": "Feature", "id":15, "properties": {"SourceCode":"SnowCourse","StationName":"CHILOQUIN (PP&L)","StationCode":"21G07","StationID":"36071","CDBCode":"CDB_S_36071","StateName":"Oregon"},"geometry": { "type": "Point","coordinates": [-121.85,42.5667]}},{"type": "Feature", "id":16, "properties": {"SourceCode":"SnowCourse","StationName":"BEAR MOUNTAIN (DISC)","StationCode":"16A08","StationID":"36489","CDBCode":"CDB_S_36489","StateName":"Idaho"},"geometry": { "type": "Point","coordinates": [-116.067,48.3]}},{"type": "Feature", "id":17, "properties": {"SourceCode":"SnowCourse","StationName":"BEAVERDAM CREEK (DISC)","StationCode":"12G21","StationID":"36491","CDBCode":"CDB_S_36491","StateName":"Idaho"},"geometry": { "type": "Point","coordinates": [-112,42.55]}},{"type": "Feature", "id":18, "properties": {"SourceCode":"SnowCourse","StationName":"BORAH (DISC)","StationCode":"13E08","StationID":"36506","CDBCode":"CDB_S_36506","StateName":"Idaho"},"geometry": { "type": "Point","coordinates": [-113.717,44.1667]}},{"type": "Feature", "id":19, "properties": {"SourceCode":"SnowCourse","StationName":"CRAWFORD R.S. (DISC)","StationCode":"15E03","StationID":"36538","CDBCode":"CDB_S_36538","StateName":"Idaho"},"geometry": { "type": "Point","coordinates": [-115.967,44.5167]}},{"type": "Feature", "id":20, "properties": {"SourceCode":"SnowCourse","StationName":"GENEVA PARK","StationCode":"05K11","StationID":"36808","CDBCode":"CDB_S_36808","StateName":"Colorado"},"geometry": { "type": "Point","coordinates": [-105.717,39.5167]}},{"type": "Feature", "id":21, "properties": {"SourceCode":"SnowCourse","StationName":"GLEN MAR RANCH","StationCode":"06K20","StationID":"36809","CDBCode":"CDB_S_36809","StateName":"Colorado"},"geometry": { "type": "Point","coordinates": [-106.05,39.8167]}},{"type": "Feature", "id":22, "properties": {"SourceCode":"SnowCourse","StationName":"HUERFANO","StationCode":"05M15","StationID":"36824","CDBCode":"CDB_S_36824","StateName":"Colorado"},"geometry": { "type": "Point","coordinates": [-105.467,37.65]}},{"type": "Feature", "id":23, "properties": {"SourceCode":"SnowCourse","StationName":"LOVELAND PASS","StationCode":"05K05","StationID":"36856","CDBCode":"CDB_S_36856","StateName":"Colorado"},"geometry": { "type": "Point","coordinates": [-105.9,39.6667]}},{"type": "Feature", "id":24, "properties": {"SourceCode":"SnowCourse","StationName":"MOSQUITO CREEK","StationCode":"06K34","StationID":"36872","CDBCode":"CDB_S_36872","StateName":"Colorado"},"geometry": { "type": "Point","coordinates": [-106.117,39.2667]}},{"type": "Feature", "id":25, "properties": {"SourceCode":"SnowCourse","StationName":"PURGATORY","StationCode":"07M22","StationID":"36891","CDBCode":"CDB_S_36891","StateName":"Colorado"},"geometry": { "type": "Point","coordinates": [-107.817,37.65]}},{"type": "Feature", "id":26, "properties": {"SourceCode":"SnowCourse","StationName":"SOUTH COLONY","StationCode":"05M13","StationID":"36909","CDBCode":"CDB_S_36909","StateName":"Colorado"},"geometry": { "type": "Point","coordinates": [-105.55,37.9667]}},{"type": "Feature", "id":27, "properties": {"SourceCode":"SnowCourse","StationName":"TWIN LAKES TUNNEL","StationCode":"06K03","StationID":"36926","CDBCode":"CDB_S_36926","StateName":"Colorado"},"geometry": { "type": "Point","coordinates": [-106.517,39.0667]}},{"type": "Feature", "id":28, "properties": {"SourceCode":"SnowCourse","StationName":"ARCTIC VALLEY #2","StationCode":"49M02","StationID":"37226","CDBCode":"CDB_S_37226","StateName":"Alaska"},"geometry": { "type": "Point","coordinates": [-149.6,61.2167]}},{"type": "Feature", "id":29, "properties": {"SourceCode":"SnowCourse","StationName":"BONANZA FORKS","StationCode":"50R03","StationID":"37241","CDBCode":"CDB_S_37241","StateName":"Alaska"},"geometry": { "type": "Point","coordinates": [-150.65,66.6833]}},{"type": "Feature", "id":30, "properties": {"SourceCode":"SnowCourse","StationName":"CHUATHBALUK (DISCONTINUED)","StationCode":"59M01","StationID":"37257","CDBCode":"CDB_S_37257","StateName":"Alaska"},"geometry": { "type": "Point","coordinates": [-159.217,61.5667]}},{"type": "Feature", "id":31, "properties": {"SourceCode":"SnowCourse","StationName":"CROPLEY LAKE","StationCode":"34J02","StationID":"37273","CDBCode":"CDB_S_37273","StateName":"Alaska"},"geometry": { "type": "Point","coordinates": [-134.517,58.2667]}},{"type": "Feature", "id":32, "properties": {"SourceCode":"SnowCourse","StationName":"GERSTLE RIVER","StationCode":"44O02","StationID":"37308","CDBCode":"CDB_S_37308","StateName":"Alaska"},"geometry": { "type": "Point","coordinates": [-144.917,63.9]}},{"type": "Feature", "id":33, "properties": {"SourceCode":"SnowCourse","StationName":"GOLD KING","StationCode":"47P05","StationID":"37309","CDBCode":"CDB_S_37309","StateName":"Alaska"},"geometry": { "type": "Point","coordinates": [-147.917,64.1833]}},{"type": "Feature", "id":34, "properties": {"SourceCode":"SnowCourse","StationName":"BISSON CREEK","StationCode":"13B25","StationID":"35352","CDBCode":"CDB_S_35352","StateName":"Montana"},"geometry": { "type": "Point","coordinates": [-114,47.6667]}},{"type": "Feature", "id":35, "properties": {"SourceCode":"SnowCourse","StationName":"BLACK MOUNTAIN","StationCode":"12C19","StationID":"35354","CDBCode":"CDB_S_35354","StateName":"Montana"},"geometry": { "type": "Point","coordinates": [-112.567,46.3167]}},{"type": "Feature", "id":36, "properties": {"SourceCode":"SnowCourse","StationName":"COPPER BOTTOM","StationCode":"12B16","StationID":"35386","CDBCode":"CDB_S_35386","StateName":"Montana"},"geometry": { "type": "Point","coordinates": [-112.6,47.05]}},{"type": "Feature", "id":37, "properties": {"SourceCode":"SnowCourse","StationName":"FIVE BULL","StationCode":"12B09","StationID":"35419","CDBCode":"CDB_S_35419","StateName":"Montana"},"geometry": { "type": "Point","coordinates": [-112.817,47.45]}},{"type": "Feature", "id":38, "properties": {"SourceCode":"SnowCourse","StationName":"FLATTOP MOUNTAIN","StationCode":"13A19","StationID":"35420","CDBCode":"CDB_S_35420","StateName":"Montana"},"geometry": { "type": "Point","coordinates": [-113.85,48.8]}},{"type": "Feature", "id":39, "properties": {"SourceCode":"SnowCourse","StationName":"GOVERNMENT SADDLE","StationCode":"15B23","StationID":"35435","CDBCode":"CDB_S_35435","StateName":"Montana"},"geometry": { "type": "Point","coordinates": [-115.733,48.55]}},{"type": "Feature", "id":40, "properties": {"SourceCode":"SnowCourse","StationName":"GRASSHOPPER","StationCode":"10C02","StationID":"35436","CDBCode":"CDB_S_35436","StateName":"Montana"},"geometry": { "type": "Point","coordinates": [-110.767,46.5167]}},{"type": "Feature", "id":41, "properties": {"SourceCode":"SnowCourse","StationName":"GRIFFIN CREEK DIVIDE","StationCode":"14A09","StationID":"35438","CDBCode":"CDB_S_35438","StateName":"Montana"},"geometry": { "type": "Point","coordinates": [-114.717,48.2]}},{"type": "Feature", "id":42, "properties": {"SourceCode":"SnowCourse","StationName":"HOODOO CREEK","StationCode":"15C01","StationID":"35453","CDBCode":"CDB_S_35453","StateName":"Idaho"},"geometry": { "type": "Point","coordinates": [-115.017,46.9667]}},{"type": "Feature", "id":43, "properties": {"SourceCode":"SnowCourse","StationName":"GOLD MTN LOOKOUT","StationCode":"18A19","StationID":"35853","CDBCode":"CDB_S_35853","StateName":"Washington"},"geometry": { "type": "Point","coordinates": [-118.45,48.1667]}},{"type": "Feature", "id":44, "properties": {"SourceCode":"SnowCourse","StationName":"GRANITE CREEK","StationCode":"20A06","StationID":"35855","CDBCode":"CDB_S_35855","StateName":"Washington"},"geometry": { "type": "Point","coordinates": [-120.8,48.6]}},{"type": "Feature", "id":45, "properties": {"SourceCode":"SnowCourse","StationName":"JOE LAKE AM (DISC)","StationCode":"21B46","StationID":"35871","CDBCode":"CDB_S_35871","StateName":"Washington"},"geometry": { "type": "Point","coordinates": [-121.317,47.4667]}},{"type": "Feature", "id":46, "properties": {"SourceCode":"SnowCourse","StationName":"LOUP LOUP (DISC)","StationCode":"19A07","StationID":"35887","CDBCode":"CDB_S_35887","StateName":"Washington"},"geometry": { "type": "Point","coordinates": [-119.9,48.4]}},{"type": "Feature", "id":47, "properties": {"SourceCode":"SnowCourse","StationName":"LOUP LOUP CAMPGROUND (NEW)","StationCode":"19A23","StationID":"35888","CDBCode":"CDB_S_35888","StateName":"Washington"},"geometry": { "type": "Point","coordinates": [-119.9,48.4]}},{"type": "Feature", "id":48, "properties": {"SourceCode":"SnowCourse","StationName":"MOSES MEADOWS #3 (DISC)","StationCode":"19A14","StationID":"35904","CDBCode":"CDB_S_35904","StateName":"Washington"},"geometry": { "type": "Point","coordinates": [-119.067,48.3667]}},{"type": "Feature", "id":49, "properties": {"SourceCode":"SnowCourse","StationName":"MOSES MTN #2","StationCode":"19A13","StationID":"35905","CDBCode":"CDB_S_35905","StateName":"Washington"},"geometry": { "type": "Point","coordinates": [-119.067,48.3167]}},{"type": "Feature", "id":50, "properties": {"SourceCode":"SnowCourse","StationName":"JOSEPHINE LOWER NO 9","StationCode":"13A14","StationID":"35460","CDBCode":"CDB_S_35460","StateName":"Montana"},"geometry": { "type": "Point","coordinates": [-113.667,48.7667]}},{"type": "Feature", "id":51, "properties": {"SourceCode":"SnowCourse","StationName":"KEELER CREEK","StationCode":"16A09","StationID":"35461","CDBCode":"CDB_S_35461","StateName":"Montana"},"geometry": { "type": "Point","coordinates": [-116.017,48.3167]}},{"type": "Feature", "id":52, "properties": {"SourceCode":"SnowCourse","StationName":"KING CREEK SADDLE","StationCode":"08B02","StationID":"35462","CDBCode":"CDB_S_35462","StateName":"Montana"},"geometry": { "type": "Point","coordinates": [-108.617,47.9167]}},{"type": "Feature", "id":53, "properties": {"SourceCode":"SnowCourse","StationName":"MOUNT ALLEN NO 7","StationCode":"13A07","StationID":"35496","CDBCode":"CDB_S_35496","StateName":"Montana"},"geometry": { "type": "Point","coordinates": [-113.667,48.7667]}},{"type": "Feature", "id":54, "properties": {"SourceCode":"SnowCourse","StationName":"SLEEPING WOMAN","StationCode":"14B05","StationID":"35547","CDBCode":"CDB_S_35547","StateName":"Montana"},"geometry": { "type": "Point","coordinates": [-114.317,47.1667]}},{"type": "Feature", "id":55, "properties": {"SourceCode":"SnowCourse","StationName":"TAYLOR PEAKS","StationCode":"11D13","StationID":"35563","CDBCode":"CDB_S_35563","StateName":"Montana"},"geometry": { "type": "Point","coordinates": [-111.45,45.0167]}},{"type": "Feature", "id":56, "properties": {"SourceCode":"SnowCourse","StationName":"TAYLOR ROAD","StationCode":"09A07","StationID":"35564","CDBCode":"CDB_S_35564","StateName":"Montana"},"geometry": { "type": "Point","coordinates": [-109.7,48.2667]}},{"type": "Feature", "id":57, "properties": {"SourceCode":"SnowCourse","StationName":"TWIN CREEKS","StationCode":"13B11","StationID":"35577","CDBCode":"CDB_S_35577","StateName":"Montana"},"geometry": { "type": "Point","coordinates": [-113.567,47.9667]}},{"type": "Feature", "id":58, "properties": {"SourceCode":"SnowCourse","StationName":"UPPER HOLLAND LAKE","StationCode":"13B05","StationID":"35579","CDBCode":"CDB_S_35579","StateName":"Montana"},"geometry": { "type": "Point","coordinates": [-113.517,47.4667]}},{"type": "Feature", "id":59, "properties": {"SourceCode":"SnowCourse","StationName":"ATWOOD LAKE","StationCode":"10J41","StationID":"35594","CDBCode":"CDB_S_35594","StateName":"Utah"},"geometry": { "type": "Point","coordinates": [-110.267,40.7167]}},{"type": "Feature", "id":60, "properties": {"SourceCode":"SnowCourse","StationName":"UPPER WHEELER","StationCode":"20B07","StationID":"35995","CDBCode":"CDB_S_35995","StateName":"Washington"},"geometry": { "type": "Point","coordinates": [-120.367,47.2667]}},{"type": "Feature", "id":61, "properties": {"SourceCode":"SnowCourse","StationName":"VAN EPPS PASS AM (DISC)","StationCode":"20B26","StationID":"35996","CDBCode":"CDB_S_35996","StateName":"Washington"},"geometry": { "type": "Point","coordinates": [-120.967,47.4667]}},{"type": "Feature", "id":62, "properties": {"SourceCode":"SnowCourse","StationName":"BEAVER RESERVOIR (DISC)","StationCode":"18D09","StationID":"36031","CDBCode":"CDB_S_36031","StateName":"Oregon"},"geometry": { "type": "Point","coordinates": [-118.217,45.1167]}},{"type": "Feature", "id":63, "properties": {"SourceCode":"SnowCourse","StationName":"BEAVER RESERVOIR (REV.)","StationCode":"18D22","StationID":"36032","CDBCode":"CDB_S_36032","StateName":"Oregon"},"geometry": { "type": "Point","coordinates": [-118.217,45.1167]}},{"type": "Feature", "id":64, "properties": {"SourceCode":"SnowCourse","StationName":"BOULDER CREEK AM","StationCode":"18E35","StationID":"36045","CDBCode":"CDB_S_36045","StateName":"Oregon"},"geometry": { "type": "Point","coordinates": [-118.017,44.3667]}},{"type": "Feature", "id":65, "properties": {"SourceCode":"SnowCourse","StationName":"COOPER SPUR (DISC)","StationCode":"21D25","StationID":"36079","CDBCode":"CDB_S_36079","StateName":"Oregon"},"geometry": { "type": "Point","coordinates": [-121.667,45.4667]}},{"type": "Feature", "id":66, "properties": {"SourceCode":"SnowCourse","StationName":"AUSTIN BROS. RANCH (DISC)","StationCode":"11G03","StationID":"36482","CDBCode":"CDB_S_36482","StateName":"Idaho"},"geometry": { "type": "Point","coordinates": [-111.417,42.7667]}},{"type": "Feature", "id":67, "properties": {"SourceCode":"SnowCourse","StationName":"BAD BEAR","StationCode":"15F02","StationID":"36483","CDBCode":"CDB_S_36483","StateName":"Idaho"},"geometry": { "type": "Point","coordinates": [-115.7,43.9]}},{"type": "Feature", "id":68, "properties": {"SourceCode":"SnowCourse","StationName":"BIG CREEK SUMMIT (DISC)","StationCode":"15E02","StationID":"36496","CDBCode":"CDB_S_36496","StateName":"Idaho"},"geometry": { "type": "Point","coordinates": [-115.8,44.6167]}},{"type": "Feature", "id":69, "properties": {"SourceCode":"SnowCourse","StationName":"BLACK MOOSE (DISC)","StationCode":"11E19","StationID":"36500","CDBCode":"CDB_S_36500","StateName":"Montana"},"geometry": { "type": "Point","coordinates": [-111.117,44.5]}},{"type": "Feature", "id":70, "properties": {"SourceCode":"SnowCourse","StationName":"BUCK MEADOWS (DISC)","StationCode":"15D05","StationID":"36514","CDBCode":"CDB_S_36514","StateName":"Idaho"},"geometry": { "type": "Point","coordinates": [-115.417,45.9667]}},{"type": "Feature", "id":71, "properties": {"SourceCode":"SnowCourse","StationName":"BULL BASIN AM","StationCode":"16G10","StationID":"36515","CDBCode":"CDB_S_36515","StateName":"Idaho"},"geometry": { "type": "Point","coordinates": [-116.967,42.35]}},{"type": "Feature", "id":72, "properties": {"SourceCode":"SnowCourse","StationName":"DODSON PASS","StationCode":"16E15","StationID":"36550","CDBCode":"CDB_S_36550","StateName":"Idaho"},"geometry": { "type": "Point","coordinates": [-116.317,44.3167]}},{"type": "Feature", "id":73, "properties": {"SourceCode":"SnowCourse","StationName":"GROUNDHOG","StationCode":"08M03","StationID":"36815","CDBCode":"CDB_S_36815","StateName":"Colorado"},"geometry": { "type": "Point","coordinates": [-108.267,37.8]}},{"type": "Feature", "id":74, "properties": {"SourceCode":"SnowCourse","StationName":"HAGERMAN TUNNEL","StationCode":"06K42","StationID":"36816","CDBCode":"CDB_S_36816","StateName":"Colorado"},"geometry": { "type": "Point","coordinates": [-106.5,39.25]}},{"type": "Feature", "id":75, "properties": {"SourceCode":"SnowCourse","StationName":"KILN","StationCode":"06K30","StationID":"36833","CDBCode":"CDB_S_36833","StateName":"Colorado"},"geometry": { "type": "Point","coordinates": [-106.617,39.3167]}},{"type": "Feature", "id":76, "properties": {"SourceCode":"SnowCourse","StationName":"MIDDLE CREEK","StationCode":"07M21","StationID":"36864","CDBCode":"CDB_S_36864","StateName":"Colorado"},"geometry": { "type": "Point","coordinates": [-107.017,37.6167]}},{"type": "Feature", "id":77, "properties": {"SourceCode":"SnowCourse","StationName":"PHANTOM VALLEY","StationCode":"05J04","StationID":"36884","CDBCode":"CDB_S_36884","StateName":"Colorado"},"geometry": { "type": "Point","coordinates": [-105.85,40.4]}},{"type": "Feature", "id":78, "properties": {"SourceCode":"SnowCourse","StationName":"SUNDANCE","StationCode":"05K22","StationID":"36914","CDBCode":"CDB_S_36914","StateName":"Colorado"},"geometry": { "type": "Point","coordinates": [-105.717,39.5667]}},{"type": "Feature", "id":79, "properties": {"SourceCode":"SnowCourse","StationName":"SINCLAIR PASS","StationCode":"2C01","StationID":"37198","CDBCode":"CDB_S_37198","StateName":"British Columbia"},"geometry": { "type": "Point","coordinates": [-115.967,50.6667]}},{"type": "Feature", "id":80, "properties": {"SourceCode":"SnowCourse","StationName":"SPAHOMIN","StationCode":"1C30","StationID":"37199","CDBCode":"CDB_S_37199","StateName":"British Columbia"},"geometry": { "type": "Point","coordinates": [-120.367,50.1167]}},{"type": "Feature", "id":81, "properties": {"SourceCode":"SnowCourse","StationName":"SULLIVAN MINE","StationCode":"2C04","StationID":"37201","CDBCode":"CDB_S_37201","StateName":"British Columbia"},"geometry": { "type": "Point","coordinates": [-116.017,49.7167]}},{"type": "Feature", "id":82, "properties": {"SourceCode":"SnowCourse","StationName":"WHITEROCKS MOUNTAIN","StationCode":"2F09","StationID":"37216","CDBCode":"CDB_S_37216","StateName":"British Columbia"},"geometry": { "type": "Point","coordinates": [-119.75,50.0167]}},{"type": "Feature", "id":83, "properties": {"SourceCode":"SnowCourse","StationName":"YELLOWHEAD","StationCode":"1A01","StationID":"37217","CDBCode":"CDB_S_37217","StateName":"British Columbia"},"geometry": { "type": "Point","coordinates": [-118.55,52.9]}},{"type": "Feature", "id":84, "properties": {"SourceCode":"SnowCourse","StationName":"YELLOWHEAD PILLOW","StationCode":"1A01P","StationID":"37218","CDBCode":"CDB_S_37218","StateName":"British Columbia"},"geometry": { "type": "Point","coordinates": [-118.55,52.9]}},{"type": "Feature", "id":85, "properties": {"SourceCode":"SnowCourse","StationName":"BIG FISH LAKE (DISCONTINUED)","StationCode":"44S01","StationID":"37235","CDBCode":"CDB_S_37235","StateName":"Alaska"},"geometry": { "type": "Point","coordinates": [-144.067,67.9167]}},{"type": "Feature", "id":86, "properties": {"SourceCode":"SnowCourse","StationName":"GROUSE CREEK DIVIDE","StationCode":"49L14","StationID":"37315","CDBCode":"CDB_S_37315","StateName":"Alaska"},"geometry": { "type": "Point","coordinates": [-149.35,60.2667]}},{"type": "Feature", "id":87, "properties": {"SourceCode":"SnowCourse","StationName":"GULKANA GLACIER (A) (DISC)","StationCode":"45O06","StationID":"37316","CDBCode":"CDB_S_37316","StateName":"Alaska"},"geometry": { "type": "Point","coordinates": [-145.417,63.25]}},{"type": "Feature", "id":88, "properties": {"SourceCode":"SnowCourse","StationName":"BEAR BASIN","StationCode":"11D09","StationID":"35343","CDBCode":"CDB_S_35343","StateName":"Montana"},"geometry": { "type": "Point","coordinates": [-111.367,45.3167]}},{"type": "Feature", "id":89, "properties": {"SourceCode":"SnowCourse","StationName":"BEAVER LAKE","StationCode":"13A11","StationID":"35345","CDBCode":"CDB_S_35345","StateName":"Montana"},"geometry": { "type": "Point","coordinates": [-113.067,48.1167]}},{"type": "Feature", "id":90, "properties": {"SourceCode":"SnowCourse","StationName":"BOXELDER CREEK","StationCode":"09A08","StationID":"35362","CDBCode":"CDB_S_35362","StateName":"Montana"},"geometry": { "type": "Point","coordinates": [-109.6,48.1667]}},{"type": "Feature", "id":91, "properties": {"SourceCode":"SnowCourse","StationName":"BRANHAM LAKES","StationCode":"11D14","StationID":"35363","CDBCode":"CDB_S_35363","StateName":"Montana"},"geometry": { "type": "Point","coordinates": [-111.967,45.5167]}},{"type": "Feature", "id":92, "properties": {"SourceCode":"SnowCourse","StationName":"CHICKEN CREEK","StationCode":"14A15","StationID":"35380","CDBCode":"CDB_S_35380","StateName":"Montana"},"geometry": { "type": "Point","coordinates": [-114.517,48.6167]}},{"type": "Feature", "id":93, "properties": {"SourceCode":"SnowCourse","StationName":"CRYSTAL LAKE","StationCode":"09C01","StationID":"35395","CDBCode":"CDB_S_35395","StateName":"Montana"},"geometry": { "type": "Point","coordinates": [-109.5,46.7667]}},{"type": "Feature", "id":94, "properties": {"SourceCode":"SnowCourse","StationName":"DAD CREEK LAKE","StationCode":"13E22","StationID":"35396","CDBCode":"CDB_S_35396","StateName":"Montana"},"geometry": { "type": "Point","coordinates": [-113.117,44.7667]}},{"type": "Feature", "id":95, "properties": {"SourceCode":"SnowCourse","StationName":"DAISY PEAK","StationCode":"10C15","StationID":"35397","CDBCode":"CDB_S_35397","StateName":"Montana"},"geometry": { "type": "Point","coordinates": [-110.317,46.6667]}},{"type": "Feature", "id":96, "properties": {"SourceCode":"SnowCourse","StationName":"EAST FORK R.S.","StationCode":"13D01","StationID":"35410","CDBCode":"CDB_S_35410","StateName":"Montana"},"geometry": { "type": "Point","coordinates": [-113.717,45.9167]}},{"type": "Feature", "id":97, "properties": {"SourceCode":"SnowCourse","StationName":"EL DORADO MINE","StationCode":"13C09","StationID":"35411","CDBCode":"CDB_S_35411","StateName":"Montana"},"geometry": { "type": "Point","coordinates": [-113.067,46.4167]}},{"type": "Feature", "id":98, "properties": {"SourceCode":"SnowCourse","StationName":"ELK HORN SPRINGS","StationCode":"13D15","StationID":"35412","CDBCode":"CDB_S_35412","StateName":"Montana"},"geometry": { "type": "Point","coordinates": [-113.1,45.4667]}},{"type": "Feature", "id":99, "properties": {"SourceCode":"SnowCourse","StationName":"FRIDAY HILL","StationCode":"15A16","StationID":"35428","CDBCode":"CDB_S_35428","StateName":"Montana"},"geometry": { "type": "Point","coordinates": [-115.917,48.7]}},{"type": "Feature", "id":100, "properties": {"SourceCode":"SnowCourse","StationName":"LICK CREEK","StationCode":"10D13","StationID":"35473","CDBCode":"CDB_S_35473","StateName":"Montana"},"geometry": { "type": "Point","coordinates": [-110.967,45.5]}},{"type": "Feature", "id":101, "properties": {"SourceCode":"SnowCourse","StationName":"LOGAN CREEK","StationCode":"14A05","StationID":"35475","CDBCode":"CDB_S_35475","StateName":"Montana"},"geometry": { "type": "Point","coordinates": [-114.65,48.3167]}},{"type": "Feature", "id":102, "properties": {"SourceCode":"SnowCourse","StationName":"LUBRECHT FOREST NO 3","StationCode":"13C21","StationID":"35482","CDBCode":"CDB_S_35482","StateName":"Montana"},"geometry": { "type": "Point","coordinates": [-113.417,46.8667]}},{"type": "Feature", "id":103, "properties": {"SourceCode":"SnowCourse","StationName":"LUBRECHT FOREST NO 6","StationCode":"13C08","StationID":"35484","CDBCode":"CDB_S_35484","StateName":"Montana"},"geometry": { "type": "Point","coordinates": [-113.45,46.9]}},{"type": "Feature", "id":104, "properties": {"SourceCode":"SnowCourse","StationName":"MILL CREEK","StationCode":"10D19","StationID":"35491","CDBCode":"CDB_S_35491","StateName":"Montana"},"geometry": { "type": "Point","coordinates": [-110.4,45.25]}},{"type": "Feature", "id":105, "properties": {"SourceCode":"SnowCourse","StationName":"MISSION MOUNTAIN","StationCode":"08B01","StationID":"35493","CDBCode":"CDB_S_35493","StateName":"Montana"},"geometry": { "type": "Point","coordinates": [-108.617,47.9167]}},{"type": "Feature", "id":106, "properties": {"SourceCode":"SnowCourse","StationName":"NORTH FORK JOCKO","StationCode":"13B07","StationID":"35509","CDBCode":"CDB_S_35509","StateName":"Montana"},"geometry": { "type": "Point","coordinates": [-113.767,47.2667]}},{"type": "Feature", "id":107, "properties": {"SourceCode":"SnowCourse","StationName":"OPHIR PARK","StationCode":"12C16","StationID":"35514","CDBCode":"CDB_S_35514","StateName":"Montana"},"geometry": { "type": "Point","coordinates": [-112.517,46.7167]}},{"type": "Feature", "id":108, "properties": {"SourceCode":"SnowCourse","StationName":"ROCK CREEK MDWS","StationCode":"15B24","StationID":"35534","CDBCode":"CDB_S_35534","StateName":"Montana"},"geometry": { "type": "Point","coordinates": [-115.667,48.4333]}},{"type": "Feature", "id":109, "properties": {"SourceCode":"SnowCourse","StationName":"STRINGER CREEK","StationCode":"10C23","StationID":"35557","CDBCode":"CDB_S_35557","StateName":"Montana"},"geometry": { "type": "Point","coordinates": [-110.9,46.9167]}},{"type": "Feature", "id":110, "properties": {"SourceCode":"SnowCourse","StationName":"WEASEL DIVIDE","StationCode":"14A07","StationID":"35582","CDBCode":"CDB_S_35582","StateName":"Montana"},"geometry": { "type": "Point","coordinates": [-114.717,48.95]}},{"type": "Feature", "id":111, "properties": {"SourceCode":"SnowCourse","StationName":"ASHLEY-TWIN LAKES","StationCode":"09J11","StationID":"35593","CDBCode":"CDB_S_35593","StateName":"Utah"},"geometry": { "type": "Point","coordinates": [-109.8,40.7167]}},{"type": "Feature", "id":112, "properties": {"SourceCode":"SnowCourse","StationName":"STEM GLADE (DISC)","StationCode":"21C01","StationID":"35968","CDBCode":"CDB_S_35968","StateName":"Washington"},"geometry": { "type": "Point","coordinates": [-121.717,46.7667]}},{"type": "Feature", "id":113, "properties": {"SourceCode":"SnowCourse","StationName":"SUMMIT G.S.","StationCode":"18A07","StationID":"35975","CDBCode":"CDB_S_35975","StateName":"Washington"},"geometry": { "type": "Point","coordinates": [-118.4,48.9]}},{"type": "Feature", "id":114, "properties": {"SourceCode":"SnowCourse","StationName":"SUMMIT TRAIL","StationCode":"18A13","StationID":"35977","CDBCode":"CDB_S_35977","StateName":"Washington"},"geometry": { "type": "Point","coordinates": [-118.517,48.25]}},{"type": "Feature", "id":115, "properties": {"SourceCode":"SnowCourse","StationName":"ALTHOUSE #2","StationCode":"23G04","StationID":"36009","CDBCode":"CDB_S_36009","StateName":"Oregon"},"geometry": { "type": "Point","coordinates": [-123.467,42.0167]}},{"type": "Feature", "id":116, "properties": {"SourceCode":"SnowCourse","StationName":"ANEROID LAKE #1 (DISC)","StationCode":"17D01","StationID":"36011","CDBCode":"CDB_S_36011","StateName":"Oregon"},"geometry": { "type": "Point","coordinates": [-117.2,45.2167]}},{"type": "Feature", "id":117, "properties": {"SourceCode":"SnowCourse","StationName":"BIG BOTTOM (DISC)","StationCode":"21D15","StationID":"36034","CDBCode":"CDB_S_36034","StateName":"Oregon"},"geometry": { "type": "Point","coordinates": [-121.8,45.0167]}},{"type": "Feature", "id":118, "properties": {"SourceCode":"SnowCourse","StationName":"BULLY CREEK AM","StationCode":"18E21","StationID":"36052","CDBCode":"CDB_S_36052","StateName":"Oregon"},"geometry": { "type": "Point","coordinates": [-118.117,44.1167]}},{"type": "Feature", "id":119, "properties": {"SourceCode":"SnowCourse","StationName":"CLEAR LAKE EXPERIMENTAL","StationCode":"21D22","StationID":"36075","CDBCode":"CDB_S_36075","StateName":"Oregon"},"geometry": { "type": "Point","coordinates": [-121.717,45.2]}},{"type": "Feature", "id":120, "properties": {"SourceCode":"SnowCourse","StationName":"MOUNT ROSE","StationCode":"19K02","StationID":"36443","CDBCode":"CDB_S_36443","StateName":"Nevada"},"geometry": { "type": "Point","coordinates": [-119.867,39.35]}},{"type": "Feature", "id":121, "properties": {"SourceCode":"SnowCourse","StationName":"MURRAY SUMMIT","StationCode":"14K03","StationID":"36445","CDBCode":"CDB_S_36445","StateName":"Nevada"},"geometry": { "type": "Point","coordinates": [-114.817,39.2167]}},{"type": "Feature", "id":122, "properties": {"SourceCode":"SnowCourse","StationName":"QUINN RIDGE AM","StationCode":"17H06","StationID":"36450","CDBCode":"CDB_S_36450","StateName":"Nevada"},"geometry": { "type": "Point","coordinates": [-117,41]}},{"type": "Feature", "id":123, "properties": {"SourceCode":"SnowCourse","StationName":"SMITH CREEK","StationCode":"15J19","StationID":"36459","CDBCode":"CDB_S_36459","StateName":"Nevada"},"geometry": { "type": "Point","coordinates": [-115.517,40.45]}},{"type": "Feature", "id":124, "properties": {"SourceCode":"SnowCourse","StationName":"STAG MOUNTAIN AM","StationCode":"15H19","StationID":"36461","CDBCode":"CDB_S_36461","StateName":"Nevada"},"geometry": { "type": "Point","coordinates": [-114.817,41.3167]}},{"type": "Feature", "id":125, "properties": {"SourceCode":"SnowCourse","StationName":"TROUT CREEK, LOWER","StationCode":"15H10","StationID":"36468","CDBCode":"CDB_S_36468","StateName":"Nevada"},"geometry": { "type": "Point","coordinates": [-115.017,41.0667]}},{"type": "Feature", "id":126, "properties": {"SourceCode":"SnowCourse","StationName":"ALLEN RANCH","StationCode":"11G35","StationID":"36475","CDBCode":"CDB_S_36475","StateName":"Idaho"},"geometry": { "type": "Point","coordinates": [-111.417,42.7667]}},{"type": "Feature", "id":127, "properties": {"SourceCode":"SnowCourse","StationName":"BOY SCOUT CAMP","StationCode":"13G02","StationID":"36509","CDBCode":"CDB_S_36509","StateName":"Idaho"},"geometry": { "type": "Point","coordinates": [-113.667,42.2167]}},{"type": "Feature", "id":128, "properties": {"SourceCode":"SnowCourse","StationName":"COUGAR POINT","StationCode":"14D06","StationID":"36534","CDBCode":"CDB_S_36534","StateName":"Idaho"},"geometry": { "type": "Point","coordinates": [-114.067,45.0667]}},{"type": "Feature", "id":129, "properties": {"SourceCode":"SnowCourse","StationName":"DEADMAN HILL","StationCode":"05J06","StationID":"36793","CDBCode":"CDB_S_36793","StateName":"Colorado"},"geometry": { "type": "Point","coordinates": [-105.767,40.8]}},{"type": "Feature", "id":130, "properties": {"SourceCode":"SnowCourse","StationName":"GRAYBACK","StationCode":"06M21","StationID":"36813","CDBCode":"CDB_S_36813","StateName":"Colorado"},"geometry": { "type": "Point","coordinates": [-106.517,37.4667]}},{"type": "Feature", "id":131, "properties": {"SourceCode":"SnowCourse","StationName":"JEFFERSON CREEK","StationCode":"05K08","StationID":"36829","CDBCode":"CDB_S_36829","StateName":"Colorado"},"geometry": { "type": "Point","coordinates": [-105.867,39.4167]}},{"type": "Feature", "id":132, "properties": {"SourceCode":"SnowCourse","StationName":"LA PLATA","StationCode":"08M04","StationID":"36836","CDBCode":"CDB_S_36836","StateName":"Colorado"},"geometry": { "type": "Point","coordinates": [-108.05,37.4167]}},{"type": "Feature", "id":133, "properties": {"SourceCode":"SnowCourse","StationName":"LONGS PEAK","StationCode":"05J22","StationID":"36852","CDBCode":"CDB_S_36852","StateName":"Colorado"},"geometry": { "type": "Point","coordinates": [-105.567,40.2667]}},{"type": "Feature", "id":134, "properties": {"SourceCode":"SnowCourse","StationName":"RABBIT EARS","StationCode":"06J09","StationID":"36893","CDBCode":"CDB_S_36893","StateName":"Colorado"},"geometry": { "type": "Point","coordinates": [-106.717,40.3667]}},{"type": "Feature", "id":135, "properties": {"SourceCode":"SnowCourse","StationName":"RED FEATHER","StationCode":"05J20","StationID":"36895","CDBCode":"CDB_S_36895","StateName":"Colorado"},"geometry": { "type": "Point","coordinates": [-105.65,40.8]}},{"type": "Feature", "id":136, "properties": {"SourceCode":"SnowCourse","StationName":"TRINCHERA","StationCode":"05M08","StationID":"36922","CDBCode":"CDB_S_36922","StateName":"Colorado"},"geometry": { "type": "Point","coordinates": [-105.217,37.35]}},{"type": "Feature", "id":137, "properties": {"SourceCode":"SnowCourse","StationName":"ANVIK RIVER (DISCONTINUED)","StationCode":"60O03","StationID":"37222","CDBCode":"CDB_S_37222","StateName":"Alaska"},"geometry": { "type": "Point","coordinates": [-160.117,63.5667]}},{"type": "Feature", "id":138, "properties": {"SourceCode":"SnowCourse","StationName":"BROOKS CAMP","StationCode":"55J01","StationID":"37245","CDBCode":"CDB_S_37245","StateName":"Alaska"},"geometry": { "type": "Point","coordinates": [-155.767,58.5333]}},{"type": "Feature", "id":139, "properties": {"SourceCode":"SnowCourse","StationName":"EAGLE CREST","StationCode":"34J03","StationID":"37286","CDBCode":"CDB_S_37286","StateName":"Alaska"},"geometry": { "type": "Point","coordinates": [-134.517,58.35]}},{"type": "Feature", "id":140, "properties": {"SourceCode":"SnowCourse","StationName":"FOX CREEK","StationCode":"49L06","StationID":"37306","CDBCode":"CDB_S_37306","StateName":"Alaska"},"geometry": { "type": "Point","coordinates": [-149.7,60.7333]}},{"type": "Feature", "id":141, "properties": {"SourceCode":"SnowCourse","StationName":"GRAPHITE LAKE","StationCode":"43S03","StationID":"37313","CDBCode":"CDB_S_37313","StateName":"Alaska"},"geometry": { "type": "Point","coordinates": [-143.4,67.0833]}},{"type": "Feature", "id":142, "properties": {"SourceCode":"SnowCourse","StationName":"BANFIELD MOUNTAIN","StationCode":"15A08","StationID":"35334","CDBCode":"CDB_S_35334","StateName":"Montana"},"geometry": { "type": "Point","coordinates": [-115.45,48.5667]}},{"type": "Feature", "id":143, "properties": {"SourceCode":"SnowCourse","StationName":"BIG CREEK","StationCode":"13B03","StationID":"35348","CDBCode":"CDB_S_35348","StateName":"Montana"},"geometry": { "type": "Point","coordinates": [-113.95,47.6667]}},{"type": "Feature", "id":144, "properties": {"SourceCode":"SnowCourse","StationName":"BLOODY DICK","StationCode":"13D10","StationID":"35357","CDBCode":"CDB_S_35357","StateName":"Montana"},"geometry": { "type": "Point","coordinates": [-113.5,45.1667]}},{"type": "Feature", "id":145, "properties": {"SourceCode":"SnowCourse","StationName":"BOTS SOTS","StationCode":"09D14","StationID":"35359","CDBCode":"CDB_S_35359","StateName":"Montana"},"geometry": { "type": "Point","coordinates": [-109.467,45.1667]}},{"type": "Feature", "id":146, "properties": {"SourceCode":"SnowCourse","StationName":"CAMP SENIA","StationCode":"09D01","StationID":"35373","CDBCode":"CDB_S_35373","StateName":"Montana"},"geometry": { "type": "Point","coordinates": [-109.467,45.1667]}},{"type": "Feature", "id":147, "properties": {"SourceCode":"SnowCourse","StationName":"CARTER CREEK","StationCode":"12D04","StationID":"35375","CDBCode":"CDB_S_35375","StateName":"Montana"},"geometry": { "type": "Point","coordinates": [-112.45,45.1167]}},{"type": "Feature", "id":148, "properties": {"SourceCode":"SnowCourse","StationName":"COLE CREEK","StationCode":"09D16","StationID":"35382","CDBCode":"CDB_S_35382","StateName":"Montana"},"geometry": { "type": "Point","coordinates": [-109.35,45.2]}},{"type": "Feature", "id":149, "properties": {"SourceCode":"SnowCourse","StationName":"EAST BOULDER S","StationCode":"10D27","StationID":"35409","CDBCode":"CDB_S_35409","StateName":"Montana"},"geometry": { "type": "Point","coordinates": [-110.2,45.2167]}},{"type": "Feature", "id":150, "properties": {"SourceCode":"SnowCourse","StationName":"LONE MOUNTAIN","StationCode":"11D19","StationID":"35476","CDBCode":"CDB_S_35476","StateName":"Montana"},"geometry": { "type": "Point","coordinates": [-111.417,45.2667]}},{"type": "Feature", "id":151, "properties": {"SourceCode":"SnowCourse","StationName":"MIDDLE MILL CREEK","StationCode":"11D15","StationID":"35490","CDBCode":"CDB_S_35490","StateName":"Montana"},"geometry": { "type": "Point","coordinates": [-111.967,45.4667]}},{"type": "Feature", "id":152, "properties": {"SourceCode":"SnowCourse","StationName":"MINERAL CREEK","StationCode":"13A16","StationID":"35492","CDBCode":"CDB_S_35492","StateName":"Montana"},"geometry": { "type": "Point","coordinates": [-113.817,48.7667]}},{"type": "Feature", "id":153, "properties": {"SourceCode":"SnowCourse","StationName":"NOISY BASIN","StationCode":"13A25","StationID":"35506","CDBCode":"CDB_S_35506","StateName":"Montana"},"geometry": { "type": "Point","coordinates": [-113.95,48.15]}},{"type": "Feature", "id":154, "properties": {"SourceCode":"SnowCourse","StationName":"POORMAN CREEK","StationCode":"15A12","StationID":"35526","CDBCode":"CDB_S_35526","StateName":"Montana"},"geometry": { "type": "Point","coordinates": [-115.617,48.1167]}},{"type": "Feature", "id":155, "properties": {"SourceCode":"SnowCourse","StationName":"SAND BASIN LOWER","StationCode":"13C45","StationID":"35540","CDBCode":"CDB_S_35540","StateName":"Montana"},"geometry": { "type": "Point","coordinates": [-113.7,46.2]}},{"type": "Feature", "id":156, "properties": {"SourceCode":"SnowCourse","StationName":"SHOWER FALLS","StationCode":"10D16","StationID":"35542","CDBCode":"CDB_S_35542","StateName":"Montana"},"geometry": { "type": "Point","coordinates": [-110.95,45.4]}},{"type": "Feature", "id":157, "properties": {"SourceCode":"SnowCourse","StationName":"SMUGGLER MINE","StationCode":"12D05","StationID":"35549","CDBCode":"CDB_S_35549","StateName":"Montana"},"geometry": { "type": "Point","coordinates": [-112.017,45.4667]}},{"type": "Feature", "id":158, "properties": {"SourceCode":"SnowCourse","StationName":"SPOTTED BEAR MOUNTAIN","StationCode":"13B02","StationID":"35551","CDBCode":"CDB_S_35551","StateName":"Montana"},"geometry": { "type": "Point","coordinates": [-113.45,47.9]}},{"type": "Feature", "id":159, "properties": {"SourceCode":"SnowCourse","StationName":"STRYKER BASIN","StationCode":"14A17","StationID":"35558","CDBCode":"CDB_S_35558","StateName":"Montana"},"geometry": { "type": "Point","coordinates": [-114.65,48.6667]}},{"type": "Feature", "id":160, "properties": {"SourceCode":"SnowCourse","StationName":"WHISKEY CREEK","StationCode":"11E30","StationID":"35585","CDBCode":"CDB_S_35585","StateName":"Montana"},"geometry": { "type": "Point","coordinates": [-111.15,44.6]}},{"type": "Feature", "id":161, "properties": {"SourceCode":"SnowCourse","StationName":"WRONG CREEK","StationCode":"12B04","StationID":"35590","CDBCode":"CDB_S_35590","StateName":"Montana"},"geometry": { "type": "Point","coordinates": [-112.917,47.8667]}},{"type": "Feature", "id":162, "properties": {"SourceCode":"SnowCourse","StationName":"ALDER CREEK","StationCode":"18E36","StationID":"36008","CDBCode":"CDB_S_36008","StateName":"Oregon"},"geometry": { "type": "Point","coordinates": [-118.05,44.7667]}},{"type": "Feature", "id":163, "properties": {"SourceCode":"SnowCourse","StationName":"BEAR VALLEY NR SENECA (DISC)","StationCode":"19E08","StationID":"36026","CDBCode":"CDB_S_36026","StateName":"Oregon"},"geometry": { "type": "Point","coordinates": [-119.017,44.2167]}},{"type": "Feature", "id":164, "properties": {"SourceCode":"SnowCourse","StationName":"BEECH CREEK SUMMIT (DISC)","StationCode":"19E02","StationID":"36033","CDBCode":"CDB_S_36033","StateName":"Oregon"},"geometry": { "type": "Point","coordinates": [-119.067,44.5167]}},{"type": "Feature", "id":165, "properties": {"SourceCode":"SnowCourse","StationName":"BIG RED MOUNTAIN","StationCode":"22G21","StationID":"36035","CDBCode":"CDB_S_36035","StateName":"Oregon"},"geometry": { "type": "Point","coordinates": [-122.867,42.05]}},{"type": "Feature", "id":166, "properties": {"SourceCode":"SnowCourse","StationName":"BLY 101 RANCH PP&L (DISC)","StationCode":"21G12","StationID":"36042","CDBCode":"CDB_S_36042","StateName":"Oregon"},"geometry": { "type": "Point","coordinates": [-121.317,42.5]}},{"type": "Feature", "id":167, "properties": {"SourceCode":"SnowCourse","StationName":"BUCKSKIN LAKE AM","StationCode":"18F10","StationID":"36051","CDBCode":"CDB_S_36051","StateName":"Oregon"},"geometry": { "type": "Point","coordinates": [-118.95,43.0167]}},{"type": "Feature", "id":168, "properties": {"SourceCode":"SnowCourse","StationName":"CALL MEADOWS AM","StationCode":"18F07","StationID":"36058","CDBCode":"CDB_S_36058","StateName":"Oregon"},"geometry": { "type": "Point","coordinates": [-118.667,43.8167]}},{"type": "Feature", "id":169, "properties": {"SourceCode":"SnowCourse","StationName":"CAMAS CREEK #2","StationCode":"20G20","StationID":"36060","CDBCode":"CDB_S_36060","StateName":"Oregon"},"geometry": { "type": "Point","coordinates": [-120.267,42.2167]}},{"type": "Feature", "id":170, "properties": {"SourceCode":"SnowCourse","StationName":"CHARLTON LAKE (DISC)","StationCode":"21F07","StationID":"36067","CDBCode":"CDB_S_36067","StateName":"Oregon"},"geometry": { "type": "Point","coordinates": [-122.467,43.6]}},{"type": "Feature", "id":171, "properties": {"SourceCode":"SnowCourse","StationName":"CLEAR LAKE","StationCode":"21D12","StationID":"36074","CDBCode":"CDB_S_36074","StateName":"Oregon"},"geometry": { "type": "Point","coordinates": [-121.717,45.2]}},{"type": "Feature", "id":172, "properties": {"SourceCode":"SnowCourse","StationName":"CLOVER CREEK (DISC)","StationCode":"17E05","StationID":"36076","CDBCode":"CDB_S_36076","StateName":"Oregon"},"geometry": { "type": "Point","coordinates": [-117.817,44.1]}},{"type": "Feature", "id":173, "properties": {"SourceCode":"SnowCourse","StationName":"ROBINSON LAKE - AERIAL MARKER","StationCode":"15J16","StationID":"36453","CDBCode":"CDB_S_36453","StateName":"Nevada"},"geometry": { "type": "Point","coordinates": [-115.267,40.7167]}},{"type": "Feature", "id":174, "properties": {"SourceCode":"SnowCourse","StationName":"BEAR BASIN (DISC)","StationCode":"16E11","StationID":"36487","CDBCode":"CDB_S_36487","StateName":"Idaho"},"geometry": { "type": "Point","coordinates": [-116.15,44.95]}},{"type": "Feature", "id":175, "properties": {"SourceCode":"SnowCourse","StationName":"BREEZY SADDLE (DISC)","StationCode":"15B20","StationID":"36510","CDBCode":"CDB_S_36510","StateName":"Idaho"},"geometry": { "type": "Point","coordinates": [-115.9,47.1]}},{"type": "Feature", "id":176, "properties": {"SourceCode":"SnowCourse","StationName":"CEDAR CREEK (DISC)","StationCode":"14G05","StationID":"36519","CDBCode":"CDB_S_36519","StateName":"Idaho"},"geometry": { "type": "Point","coordinates": [-114.9,42.1]}},{"type": "Feature", "id":177, "properties": {"SourceCode":"SnowCourse","StationName":"COOL CREEK (DISC)","StationCode":"15C16","StationID":"36526","CDBCode":"CDB_S_36526","StateName":"Idaho"},"geometry": { "type": "Point","coordinates": [-115.3,46.7667]}},{"type": "Feature", "id":178, "properties": {"SourceCode":"SnowCourse","StationName":"COPES CAMP","StationCode":"13E17","StationID":"36528","CDBCode":"CDB_S_36528","StateName":"Idaho"},"geometry": { "type": "Point","coordinates": [-113.817,44.85]}},{"type": "Feature", "id":179, "properties": {"SourceCode":"SnowCourse","StationName":"DOLLARHIDE SUMMIT (DISC)","StationCode":"14F08","StationID":"36551","CDBCode":"CDB_S_36551","StateName":"Idaho"},"geometry": { "type": "Point","coordinates": [-114.667,43.6]}},{"type": "Feature", "id":180, "properties": {"SourceCode":"SnowCourse","StationName":"DRY BASIN","StationCode":"11G14","StationID":"36553","CDBCode":"CDB_S_36553","StateName":"Idaho"},"geometry": { "type": "Point","coordinates": [-111.6,42.2667]}},{"type": "Feature", "id":181, "properties": {"SourceCode":"SnowCourse","StationName":"EAST FORK","StationCode":"06K17","StationID":"36796","CDBCode":"CDB_S_36796","StateName":"Colorado"},"geometry": { "type": "Point","coordinates": [-106.217,39.35]}},{"type": "Feature", "id":182, "properties": {"SourceCode":"SnowCourse","StationName":"GRAND LAKE","StationCode":"05J19","StationID":"36812","CDBCode":"CDB_S_36812","StateName":"Colorado"},"geometry": { "type": "Point","coordinates": [-105.817,40.2667]}},{"type": "Feature", "id":183, "properties": {"SourceCode":"SnowCourse","StationName":"HIDDEN VALLEY","StationCode":"05J13","StationID":"36819","CDBCode":"CDB_S_36819","StateName":"Colorado"},"geometry": { "type": "Point","coordinates": [-105.65,40.4]}},{"type": "Feature", "id":184, "properties": {"SourceCode":"SnowCourse","StationName":"LA VETA PASS","StationCode":"05M01","StationID":"36837","CDBCode":"CDB_S_36837","StateName":"Colorado"},"geometry": { "type": "Point","coordinates": [-105.2,37.6]}},{"type": "Feature", "id":185, "properties": {"SourceCode":"SnowCourse","StationName":"LEMON RESERVOIR #2","StationCode":"07M24","StationID":"36844","CDBCode":"CDB_S_36844","StateName":"Colorado"},"geometry": { "type": "Point","coordinates": [-107.65,37.45]}},{"type": "Feature", "id":186, "properties": {"SourceCode":"SnowCourse","StationName":"LITTLE LAKE","StationCode":"06J21","StationID":"36846","CDBCode":"CDB_S_36846","StateName":"Colorado"},"geometry": { "type": "Point","coordinates": [-106.7,40.6]}},{"type": "Feature", "id":187, "properties": {"SourceCode":"SnowCourse","StationName":"RANCH CREEK","StationCode":"05K18","StationID":"36894","CDBCode":"CDB_S_36894","StateName":"Colorado"},"geometry": { "type": "Point","coordinates": [-105.717,39.9167]}},{"type": "Feature", "id":188, "properties": {"SourceCode":"SnowCourse","StationName":"SUNBEAM LAKE","StationCode":"2A22","StationID":"37205","CDBCode":"CDB_S_37205","StateName":"British Columbia"},"geometry": { "type": "Point","coordinates": [-117.65,51.5667]}},{"type": "Feature", "id":189, "properties": {"SourceCode":"SnowCourse","StationName":"ARCTIC VALLEY #4","StationCode":"49M04","StationID":"37228","CDBCode":"CDB_S_37228","StateName":"Alaska"},"geometry": { "type": "Point","coordinates": [-149.55,61.2333]}},{"type": "Feature", "id":190, "properties": {"SourceCode":"SnowCourse","StationName":"CAPPS PLATEAU (DISCONTINUED)","StationCode":"51M06","StationID":"37246","CDBCode":"CDB_S_37246","StateName":"Alaska"},"geometry": { "type": "Point","coordinates": [-151.8,61.25]}},{"type": "Feature", "id":191, "properties": {"SourceCode":"SnowCourse","StationName":"CHISTOCHINA","StationCode":"44N01","StationID":"37255","CDBCode":"CDB_S_37255","StateName":"Alaska"},"geometry": { "type": "Point","coordinates": [-144.617,62.6]}},{"type": "Feature", "id":192, "properties": {"SourceCode":"SnowCourse","StationName":"COPPER CREEK","StationCode":"43P01","StationID":"37271","CDBCode":"CDB_S_37271","StateName":"Alaska"},"geometry": { "type": "Point","coordinates": [-143.383,64.8667]}},{"type": "Feature", "id":193, "properties": {"SourceCode":"SnowCourse","StationName":"DEER CREEK","StationCode":"55P01","StationID":"37278","CDBCode":"CDB_S_37278","StateName":"Alaska"},"geometry": { "type": "Point","coordinates": [-155.1,64.8167]}},{"type": "Feature", "id":194, "properties": {"SourceCode":"SnowCourse","StationName":"FALLS CREEK (DISCONTINUED)","StationCode":"52I01","StationID":"37294","CDBCode":"CDB_S_37294","StateName":"Alaska"},"geometry": { "type": "Point","coordinates": [-152.967,57.65]}},{"type": "Feature", "id":195, "properties": {"SourceCode":"SnowCourse","StationName":"FIELDING LAKE","StationCode":"45O01","StationID":"37296","CDBCode":"CDB_S_37296","StateName":"Alaska"},"geometry": { "type": "Point","coordinates": [-145.617,63.2]}},{"type": "Feature", "id":196, "properties": {"SourceCode":"SnowCourse","StationName":"GRANITE POINT","StationCode":"51M02","StationID":"37312","CDBCode":"CDB_S_37312","StateName":"Alaska"},"geometry": { "type": "Point","coordinates": [-151.45,61.0167]}},{"type": "Feature", "id":197, "properties": {"SourceCode":"SnowCourse","StationName":"GROUCH CREEK","StationCode":"57O01","StationID":"37314","CDBCode":"CDB_S_37314","StateName":"Alaska"},"geometry": { "type": "Point","coordinates": [-157.8,63.3167]}},{"type": "Feature", "id":198, "properties": {"SourceCode":"SnowCourse","StationName":"HAYSTACK MTN.","StationCode":"47Q02","StationID":"37321","CDBCode":"CDB_S_37321","StateName":"Alaska"},"geometry": { "type": "Point","coordinates": [-147.617,65.1333]}},{"type": "Feature", "id":199, "properties": {"SourceCode":"SnowCourse","StationName":"OHANAPECOSH (DISC)","StationCode":"21C32","StationID":"35921","CDBCode":"CDB_S_35921","StateName":"Washington"},"geometry": { "type": "Point","coordinates": [-121.55,46.75]}},{"type": "Feature", "id":200, "properties": {"SourceCode":"SnowCourse","StationName":"OLALLIE MEADOWS","StationCode":"21B02","StationID":"35923","CDBCode":"CDB_S_35923","StateName":"Washington"},"geometry": { "type": "Point","coordinates": [-121.45,47.3667]}},{"type": "Feature", "id":201, "properties": {"SourceCode":"SnowCourse","StationName":"PUGH RIDGE AM","StationCode":"20A32","StationID":"35937","CDBCode":"CDB_S_35937","StateName":"Washington"},"geometry": { "type": "Point","coordinates": [-120.55,48.0667]}},{"type": "Feature", "id":202, "properties": {"SourceCode":"SnowCourse","StationName":"RAINY PASS","StationCode":"20A09","StationID":"35939","CDBCode":"CDB_S_35939","StateName":"Washington"},"geometry": { "type": "Point","coordinates": [-120.717,48.5667]}},{"type": "Feature", "id":203, "properties": {"SourceCode":"SnowCourse","StationName":"REX RIVER (DISC)","StationCode":"21B17","StationID":"35940","CDBCode":"CDB_S_35940","StateName":"Washington"},"geometry": { "type": "Point","coordinates": [-121.617,47.3167]}},{"type": "Feature", "id":204, "properties": {"SourceCode":"SnowCourse","StationName":"WINDIGO PASS (DISC)","StationCode":"22F15","StationID":"36322","CDBCode":"CDB_S_36322","StateName":"Oregon"},"geometry": { "type": "Point","coordinates": [-122.017,43.2667]}},{"type": "Feature", "id":205, "properties": {"SourceCode":"SnowCourse","StationName":"YAMSEY PP&L (DISC)","StationCode":"21G14","StationID":"36324","CDBCode":"CDB_S_36324","StateName":"Oregon"},"geometry": { "type": "Point","coordinates": [-121.217,42.95]}},{"type": "Feature", "id":206, "properties": {"SourceCode":"SnowCourse","StationName":"ELK CABIN","StationCode":"05P04","StationID":"36339","CDBCode":"CDB_S_36339","StateName":"New Mexico"},"geometry": { "type": "Point","coordinates": [-105.8,35.7]}},{"type": "Feature", "id":207, "properties": {"SourceCode":"SnowCourse","StationName":"FRISCO DIVIDE","StationCode":"08S01","StationID":"36341","CDBCode":"CDB_S_36341","StateName":"New Mexico"},"geometry": { "type": "Point","coordinates": [-108.917,33.7167]}},{"type": "Feature", "id":208, "properties": {"SourceCode":"SnowCourse","StationName":"PALO","StationCode":"05N13","StationID":"36355","CDBCode":"CDB_S_36355","StateName":"New Mexico"},"geometry": { "type": "Point","coordinates": [-105.317,36.4]}},{"type": "Feature", "id":209, "properties": {"SourceCode":"SnowCourse","StationName":"MARLETTE LAKE","StationCode":"19K04","StationID":"36438","CDBCode":"CDB_S_36438","StateName":"Nevada"},"geometry": { "type": "Point","coordinates": [-119.9,39.15]}},{"type": "Feature", "id":210, "properties": {"SourceCode":"SnowCourse","StationName":"MIDAS","StationCode":"16H03","StationID":"36441","CDBCode":"CDB_S_36441","StateName":"Nevada"},"geometry": { "type": "Point","coordinates": [-116.817,41.2667]}},{"type": "Feature", "id":211, "properties": {"SourceCode":"SnowCourse","StationName":"WESTON","StationCode":"06K26","StationID":"36939","CDBCode":"CDB_S_36939","StateName":"Colorado"},"geometry": { "type": "Point","coordinates": [-106.017,39.0667]}},{"type": "Feature", "id":212, "properties": {"SourceCode":"SnowCourse","StationName":"BUCKEYE ROUGHS","StationCode":"19L10D","StationID":"36957","CDBCode":"CDB_S_36957","StateName":"California"},"geometry": { "type": "Point","coordinates": [-119.417,38.1667]}},{"type": "Feature", "id":213, "properties": {"SourceCode":"SnowCourse","StationName":"CAPLES LAKES (CA)","StationCode":"20L11","StationID":"36959","CDBCode":"CDB_S_36959","StateName":"California"},"geometry": { "type": "Point","coordinates": [-120.05,38.7167]}},{"type": "Feature", "id":214, "properties": {"SourceCode":"SnowCourse","StationName":"EBBETTS PASS - AERIAL MARKER","StationCode":"19L19","StationID":"36974","CDBCode":"CDB_S_36974","StateName":"California"},"geometry": { "type": "Point","coordinates": [-119.817,38.5167]}},{"type": "Feature", "id":215, "properties": {"SourceCode":"SnowCourse","StationName":"LAKE LUCILLE","StationCode":"20L04","StationID":"36989","CDBCode":"CDB_S_36989","StateName":"California"},"geometry": { "type": "Point","coordinates": [-120.117,38.8667]}},{"type": "Feature", "id":216, "properties": {"SourceCode":"SnowCourse","StationName":"MADISON PLATEAU","StationCode":"11E31","StationID":"35486","CDBCode":"CDB_S_35486","StateName":"Montana"},"geometry": { "type": "Point","coordinates": [-111.117,44.5667]}},{"type": "Feature", "id":217, "properties": {"SourceCode":"SnowCourse","StationName":"MARIAS PASS","StationCode":"13A05","StationID":"35488","CDBCode":"CDB_S_35488","StateName":"Montana"},"geometry": { "type": "Point","coordinates": [-113.35,48.3167]}},{"type": "Feature", "id":218, "properties": {"SourceCode":"SnowCourse","StationName":"NEZ PERCE PASS","StationCode":"14D01","StationID":"35505","CDBCode":"CDB_S_35505","StateName":"Montana"},"geometry": { "type": "Point","coordinates": [-114.5,45.7167]}},{"type": "Feature", "id":219, "properties": {"SourceCode":"SnowCourse","StationName":"PICKET PIN MIDDLE","StationCode":"09D12","StationID":"35519","CDBCode":"CDB_S_35519","StateName":"Montana"},"geometry": { "type": "Point","coordinates": [-109.967,45.4167]}},{"type": "Feature", "id":220, "properties": {"SourceCode":"SnowCourse","StationName":"PICKET PIN UPPER","StationCode":"10D28","StationID":"35520","CDBCode":"CDB_S_35520","StateName":"Montana"},"geometry": { "type": "Point","coordinates": [-110.017,45.45]}},{"type": "Feature", "id":221, "properties": {"SourceCode":"SnowCourse","StationName":"ROCKER PEAK","StationCode":"12C11","StationID":"35536","CDBCode":"CDB_S_35536","StateName":"Montana"},"geometry": { "type": "Point","coordinates": [-112.25,46.3667]}},{"type": "Feature", "id":222, "properties": {"SourceCode":"SnowCourse","StationName":"SPUR PARK","StationCode":"10C06","StationID":"35552","CDBCode":"CDB_S_35552","StateName":"Montana"},"geometry": { "type": "Point","coordinates": [-110.617,46.7667]}},{"type": "Feature", "id":223, "properties": {"SourceCode":"SnowCourse","StationName":"TIMBERLINE CREEK","StationCode":"09D04","StationID":"35569","CDBCode":"CDB_S_35569","StateName":"Montana"},"geometry": { "type": "Point","coordinates": [-109.467,45.15]}},{"type": "Feature", "id":224, "properties": {"SourceCode":"SnowCourse","StationName":"WHITE MILL","StationCode":"09D08","StationID":"35586","CDBCode":"CDB_S_35586","StateName":"Montana"},"geometry": { "type": "Point","coordinates": [-109.9,45.05]}},{"type": "Feature", "id":225, "properties": {"SourceCode":"SnowCourse","StationName":"STEVENS PASS SAND SHED","StationCode":"21B45","StationID":"35971","CDBCode":"CDB_S_35971","StateName":"Washington"},"geometry": { "type": "Point","coordinates": [-121.017,47.75]}},{"type": "Feature", "id":226, "properties": {"SourceCode":"SnowCourse","StationName":"STRANGER MOUNTAIN","StationCode":"17A05","StationID":"35973","CDBCode":"CDB_S_35973","StateName":"Washington"},"geometry": { "type": "Point","coordinates": [-117.967,48.1667]}},{"type": "Feature", "id":227, "properties": {"SourceCode":"SnowCourse","StationName":"TRAIL CREEK (DISC)","StationCode":"20B14","StationID":"35989","CDBCode":"CDB_S_35989","StateName":"Washington"},"geometry": { "type": "Point","coordinates": [-120.35,47.1167]}},{"type": "Feature", "id":228, "properties": {"SourceCode":"SnowCourse","StationName":"TROUGH NO. 2","StationCode":"20B25","StationID":"35990","CDBCode":"CDB_S_35990","StateName":"Washington"},"geometry": { "type": "Point","coordinates": [-120.317,47.2167]}},{"type": "Feature", "id":229, "properties": {"SourceCode":"SnowCourse","StationName":"WEST SMAY CREEK","StationCode":"21B44","StationID":"36003","CDBCode":"CDB_S_36003","StateName":"Washington"},"geometry": { "type": "Point","coordinates": [-121.567,47.2667]}},{"type": "Feature", "id":230, "properties": {"SourceCode":"SnowCourse","StationName":"WHITE PASS LEACH LK (DISC)","StationCode":"21C27","StationID":"36005","CDBCode":"CDB_S_36005","StateName":"Washington"},"geometry": { "type": "Point","coordinates": [-121.367,46.6167]}},{"type": "Feature", "id":231, "properties": {"SourceCode":"SnowCourse","StationName":"WINCHESTER CREEK (DISC)","StationCode":"17A03","StationID":"36007","CDBCode":"CDB_S_36007","StateName":"Washington"},"geometry": { "type": "Point","coordinates": [-117.417,48.3167]}},{"type": "Feature", "id":232, "properties": {"SourceCode":"SnowCourse","StationName":"BLUE MOUNTAIN SPRINGS","StationCode":"18E16","StationID":"36040","CDBCode":"CDB_S_36040","StateName":"Oregon"},"geometry": { "type": "Point","coordinates": [-118.5,44.25]}},{"type": "Feature", "id":233, "properties": {"SourceCode":"SnowCourse","StationName":"CALIBAN (DISC)","StationCode":"22G30","StationID":"36057","CDBCode":"CDB_S_36057","StateName":"Oregon"},"geometry": { "type": "Point","coordinates": [-122.567,42.25]}},{"type": "Feature", "id":234, "properties": {"SourceCode":"SnowCourse","StationName":"RODEO FLAT","StationCode":"15H06","StationID":"36455","CDBCode":"CDB_S_36455","StateName":"Nevada"},"geometry": { "type": "Point","coordinates": [-115.95,41.5667]}},{"type": "Feature", "id":235, "properties": {"SourceCode":"SnowCourse","StationName":"WHITE RIVER #1","StationCode":"15L01","StationID":"36471","CDBCode":"CDB_S_36471","StateName":"Nevada"},"geometry": { "type": "Point","coordinates": [-115.35,38.8167]}},{"type": "Feature", "id":236, "properties": {"SourceCode":"SnowCourse","StationName":"BEAR CANYON (DISC)","StationCode":"13F03","StationID":"36488","CDBCode":"CDB_S_36488","StateName":"Idaho"},"geometry": { "type": "Point","coordinates": [-113.917,43.75]}},{"type": "Feature", "id":237, "properties": {"SourceCode":"SnowCourse","StationName":"BEAR SADDLE (DISC)","StationCode":"16E10","StationID":"36490","CDBCode":"CDB_S_36490","StateName":"Idaho"},"geometry": { "type": "Point","coordinates": [-116.967,44.6]}},{"type": "Feature", "id":238, "properties": {"SourceCode":"SnowCourse","StationName":"BONE","StationCode":"11F08","StationID":"36505","CDBCode":"CDB_S_36505","StateName":"Idaho"},"geometry": { "type": "Point","coordinates": [-111.767,43.3]}},{"type": "Feature", "id":239, "properties": {"SourceCode":"SnowCourse","StationName":"BOSTETTER R.S. (DISC)","StationCode":"14G01","StationID":"36507","CDBCode":"CDB_S_36507","StateName":"Idaho"},"geometry": { "type": "Point","coordinates": [-114.167,42.1667]}},{"type": "Feature", "id":240, "properties": {"SourceCode":"SnowCourse","StationName":"CROOKED FORK","StationCode":"14C11","StationID":"36539","CDBCode":"CDB_S_36539","StateName":"Idaho"},"geometry": { "type": "Point","coordinates": [-114.667,46.5167]}},{"type": "Feature", "id":241, "properties": {"SourceCode":"SnowCourse","StationName":"CUB RIVER R.S. (DISC)","StationCode":"11G12","StationID":"36540","CDBCode":"CDB_S_36540","StateName":"Idaho"},"geometry": { "type": "Point","coordinates": [-111.667,42.1167]}},{"type": "Feature", "id":242, "properties": {"SourceCode":"SnowCourse","StationName":"GARFIELD","StationCode":"06L08","StationID":"36807","CDBCode":"CDB_S_36807","StateName":"Colorado"},"geometry": { "type": "Point","coordinates": [-106.3,38.55]}},{"type": "Feature", "id":243, "properties": {"SourceCode":"SnowCourse","StationName":"HORSESHOE MOUNTAIN","StationCode":"06K35","StationID":"36822","CDBCode":"CDB_S_36822","StateName":"Colorado"},"geometry": { "type": "Point","coordinates": [-106.117,39.2]}},{"type": "Feature", "id":244, "properties": {"SourceCode":"SnowCourse","StationName":"IDARADO","StationCode":"07M27","StationID":"36825","CDBCode":"CDB_S_36825","StateName":"Colorado"},"geometry": { "type": "Point","coordinates": [-107.667,37.9167]}},{"type": "Feature", "id":245, "properties": {"SourceCode":"SnowCourse","StationName":"LAKE HUMPHREY","StationCode":"06M15","StationID":"36839","CDBCode":"CDB_S_36839","StateName":"Colorado"},"geometry": { "type": "Point","coordinates": [-106.867,37.6667]}},{"type": "Feature", "id":246, "properties": {"SourceCode":"SnowCourse","StationName":"LULU","StationCode":"05J07","StationID":"36857","CDBCode":"CDB_S_36857","StateName":"Colorado"},"geometry": { "type": "Point","coordinates": [-105.85,40.45]}},{"type": "Feature", "id":247, "properties": {"SourceCode":"SnowCourse","StationName":"PORCUPINE","StationCode":"07M20","StationID":"36889","CDBCode":"CDB_S_36889","StateName":"Colorado"},"geometry": { "type": "Point","coordinates": [-107.167,37.85]}},{"type": "Feature", "id":248, "properties": {"SourceCode":"SnowCourse","StationName":"QUAKER RIDGE","StationCode":"06J33","StationID":"36892","CDBCode":"CDB_S_36892","StateName":"Colorado"},"geometry": { "type": "Point","coordinates": [-106.7,40.5167]}},{"type": "Feature", "id":249, "properties": {"SourceCode":"SnowCourse","StationName":"FROHNER MEADOWS","StationCode":"12C13","StationID":"35429","CDBCode":"CDB_S_35429","StateName":"Montana"},"geometry": { "type": "Point","coordinates": [-112.2,46.45]}},{"type": "Feature", "id":250, "properties": {"SourceCode":"SnowCourse","StationName":"GARVER CREEK","StationCode":"15A05","StationID":"35430","CDBCode":"CDB_S_35430","StateName":"Montana"},"geometry": { "type": "Point","coordinates": [-115.817,48.9667]}},{"type": "Feature", "id":251, "properties": {"SourceCode":"SnowCourse","StationName":"HEBGEN DAM","StationCode":"11E05","StationID":"35445","CDBCode":"CDB_S_35445","StateName":"Montana"},"geometry": { "type": "Point","coordinates": [-111.317,44.8667]}},{"type": "Feature", "id":252, "properties": {"SourceCode":"SnowCourse","StationName":"HELL ROARING DIVIDE","StationCode":"14A03","StationID":"35446","CDBCode":"CDB_S_35446","StateName":"Montana"},"geometry": { "type": "Point","coordinates": [-114.35,48.5]}},{"type": "Feature", "id":253, "properties": {"SourceCode":"SnowCourse","StationName":"HERRIG JUNCTION","StationCode":"14A16","StationID":"35447","CDBCode":"CDB_S_35447","StateName":"Montana"},"geometry": { "type": "Point","coordinates": [-114.617,48.7]}},{"type": "Feature", "id":254, "properties": {"SourceCode":"SnowCourse","StationName":"GROUSE CAMP DISC","StationCode":"20B11","StationID":"35861","CDBCode":"CDB_S_35861","StateName":"Washington"},"geometry": { "type": "Point","coordinates": [-120.467,47.2667]}},{"type": "Feature", "id":255, "properties": {"SourceCode":"SnowCourse","StationName":"HARTS PASS","StationCode":"20A05","StationID":"35862","CDBCode":"CDB_S_35862","StateName":"Washington"},"geometry": { "type": "Point","coordinates": [-120.65,48.7167]}},{"type": "Feature", "id":256, "properties": {"SourceCode":"SnowCourse","StationName":"LEAVENWORTH R.S. (DISC)","StationCode":"20B17","StationID":"35880","CDBCode":"CDB_S_35880","StateName":"Washington"},"geometry": { "type": "Point","coordinates": [-120.65,47.5667]}},{"type": "Feature", "id":257, "properties": {"SourceCode":"SnowCourse","StationName":"LEMAH CREEK AM (DISC)","StationCode":"21B47","StationID":"35881","CDBCode":"CDB_S_35881","StateName":"Washington"},"geometry": { "type": "Point","coordinates": [-121.267,47.5]}},{"type": "Feature", "id":258, "properties": {"SourceCode":"SnowCourse","StationName":"MEADOW CABINS","StationCode":"20A08","StationID":"35896","CDBCode":"CDB_S_35896","StateName":"Washington"},"geometry": { "type": "Point","coordinates": [-120.917,48.5667]}},{"type": "Feature", "id":259, "properties": {"SourceCode":"SnowCourse","StationName":"MERRITT","StationCode":"20B18","StationID":"35897","CDBCode":"CDB_S_35897","StateName":"Washington"},"geometry": { "type": "Point","coordinates": [-120.867,47.7667]}},{"type": "Feature", "id":260, "properties": {"SourceCode":"SnowCourse","StationName":"METEOR","StationCode":"18A18","StationID":"35898","CDBCode":"CDB_S_35898","StateName":"Washington"},"geometry": { "type": "Point","coordinates": [-118.35,48.2667]}},{"type": "Feature", "id":261, "properties": {"SourceCode":"SnowCourse","StationName":"PAYSAYTEN AM (DISC)","StationCode":"20A28","StationID":"35930","CDBCode":"CDB_S_35930","StateName":"Washington"},"geometry": { "type": "Point","coordinates": [-120.617,48.9167]}},{"type": "Feature", "id":262, "properties": {"SourceCode":"SnowCourse","StationName":"S.F. TOLT RIVER (DISC)","StationCode":"21B18","StationID":"35946","CDBCode":"CDB_S_35946","StateName":"Washington"},"geometry": { "type": "Point","coordinates": [-121.617,47.7]}},{"type": "Feature", "id":263, "properties": {"SourceCode":"SnowCourse","StationName":"SAFETY HARBOR AM (DISC)","StationCode":"20A30","StationID":"35947","CDBCode":"CDB_S_35947","StateName":"Washington"},"geometry": { "type": "Point","coordinates": [-120.317,48.1167]}},{"type": "Feature", "id":264, "properties": {"SourceCode":"SnowCourse","StationName":"SOUTH BALDY","StationCode":"17A10","StationID":"35962","CDBCode":"CDB_S_35962","StateName":"Washington"},"geometry": { "type": "Point","coordinates": [-117.15,48.4167]}},{"type": "Feature", "id":265, "properties": {"SourceCode":"SnowCourse","StationName":"KING SPRINGS","StationCode":"08B03","StationID":"35463","CDBCode":"CDB_S_35463","StateName":"Montana"},"geometry": { "type": "Point","coordinates": [-108.617,47.9167]}},{"type": "Feature", "id":266, "properties": {"SourceCode":"SnowCourse","StationName":"LONESOME CREEK","StationCode":"10C21","StationID":"35477","CDBCode":"CDB_S_35477","StateName":"Montana"},"geometry": { "type": "Point","coordinates": [-110.917,46.9]}},{"type": "Feature", "id":267, "properties": {"SourceCode":"SnowCourse","StationName":"LOST SOUL","StationCode":"15A09","StationID":"35479","CDBCode":"CDB_S_35479","StateName":"Montana"},"geometry": { "type": "Point","coordinates": [-115.4,48.5667]}},{"type": "Feature", "id":268, "properties": {"SourceCode":"SnowCourse","StationName":"MOULTON RESERVOIR","StationCode":"12C20","StationID":"35495","CDBCode":"CDB_S_35495","StateName":"Montana"},"geometry": { "type": "Point","coordinates": [-112.5,46.0667]}},{"type": "Feature", "id":269, "properties": {"SourceCode":"SnowCourse","StationName":"MOUNT LOCKHART","StationCode":"12B12","StationID":"35497","CDBCode":"CDB_S_35497","StateName":"Montana"},"geometry": { "type": "Point","coordinates": [-112.817,47.9167]}},{"type": "Feature", "id":270, "properties": {"SourceCode":"SnowCourse","StationName":"NORTH MEADOW","StationCode":"11D03","StationID":"35510","CDBCode":"CDB_S_35510","StateName":"Montana"},"geometry": { "type": "Point","coordinates": [-111.917,45.55]}},{"type": "Feature", "id":271, "properties": {"SourceCode":"SnowCourse","StationName":"PTARMIGAN NO 8","StationCode":"13A08","StationID":"35529","CDBCode":"CDB_S_35529","StateName":"Montana"},"geometry": { "type": "Point","coordinates": [-113.717,48.8167]}},{"type": "Feature", "id":272, "properties": {"SourceCode":"SnowCourse","StationName":"RED MOUNTAIN","StationCode":"15A01","StationID":"35530","CDBCode":"CDB_S_35530","StateName":"Montana"},"geometry": { "type": "Point","coordinates": [-115.35,48.9167]}},{"type": "Feature", "id":273, "properties": {"SourceCode":"SnowCourse","StationName":"SUN CREEK","StationCode":"10C24","StationID":"35562","CDBCode":"CDB_S_35562","StateName":"Montana"},"geometry": { "type": "Point","coordinates": [-110.867,46.9167]}},{"type": "Feature", "id":274, "properties": {"SourceCode":"SnowCourse","StationName":"TWIN LAKES","StationCode":"14C08","StationID":"35578","CDBCode":"CDB_S_35578","StateName":"Montana"},"geometry": { "type": "Point","coordinates": [-114.5,46.15]}},{"type": "Feature", "id":275, "properties": {"SourceCode":"SnowCourse","StationName":"SURPRISE LAKES","StationCode":"21C13","StationID":"35978","CDBCode":"CDB_S_35978","StateName":"Washington"},"geometry": { "type": "Point","coordinates": [-121.75,46.1]}},{"type": "Feature", "id":276, "properties": {"SourceCode":"SnowCourse","StationName":"VULCAN MTN","StationCode":"18A24","StationID":"35997","CDBCode":"CDB_S_35997","StateName":"Washington"},"geometry": { "type": "Point","coordinates": [-118.617,48.9667]}},{"type": "Feature", "id":277, "properties": {"SourceCode":"SnowCourse","StationName":"ANNIE SPRING REV","StationCode":"22G06","StationID":"36013","CDBCode":"CDB_S_36013","StateName":"Oregon"},"geometry": { "type": "Point","coordinates": [-122.167,42.8667]}},{"type": "Feature", "id":278, "properties": {"SourceCode":"SnowCourse","StationName":"ANTHONY LAKE (REV)","StationCode":"18E31","StationID":"36015","CDBCode":"CDB_S_36015","StateName":"Oregon"},"geometry": { "type": "Point","coordinates": [-118.217,44.9667]}},{"type": "Feature", "id":279, "properties": {"SourceCode":"SnowCourse","StationName":"BEAVER DAM CREEK","StationCode":"22G28","StationID":"36030","CDBCode":"CDB_S_36030","StateName":"Oregon"},"geometry": { "type": "Point","coordinates": [-122.267,42.2667]}},{"type": "Feature", "id":280, "properties": {"SourceCode":"SnowCourse","StationName":"O'NEIL CREEK","StationCode":"15H25","StationID":"36447","CDBCode":"CDB_S_36447","StateName":"Nevada"},"geometry": { "type": "Point","coordinates": [-115.067,41.8667]}},{"type": "Feature", "id":281, "properties": {"SourceCode":"SnowCourse","StationName":"POLE CREEK RANGER STATION","StationCode":"15H14","StationID":"36449","CDBCode":"CDB_S_36449","StateName":"Nevada"},"geometry": { "type": "Point","coordinates": [-115.25,41.8667]}},{"type": "Feature", "id":282, "properties": {"SourceCode":"SnowCourse","StationName":"TENT MTN., UPPER- AERIAL MARKER","StationCode":"15J23","StationID":"36464","CDBCode":"CDB_S_36464","StateName":"Nevada"},"geometry": { "type": "Point","coordinates": [-115.167,40.95]}},{"type": "Feature", "id":283, "properties": {"SourceCode":"SnowCourse","StationName":"BIG SPRINGS","StationCode":"11E09","StationID":"36497","CDBCode":"CDB_S_36497","StateName":"Idaho"},"geometry": { "type": "Point","coordinates": [-111.267,44.4667]}},{"type": "Feature", "id":284, "properties": {"SourceCode":"SnowCourse","StationName":"BLACK CANYON (DISC)","StationCode":"11E18","StationID":"36499","CDBCode":"CDB_S_36499","StateName":"Idaho"},"geometry": { "type": "Point","coordinates": [-111.1,44.4667]}},{"type": "Feature", "id":285, "properties": {"SourceCode":"SnowCourse","StationName":"BRUNO CREEK","StationCode":"14E08","StationID":"36513","CDBCode":"CDB_S_36513","StateName":"Idaho"},"geometry": { "type": "Point","coordinates": [-114.517,44.35]}},{"type": "Feature", "id":286, "properties": {"SourceCode":"SnowCourse","StationName":"CAMAS CREEK DIVIDE","StationCode":"15F09","StationID":"36516","CDBCode":"CDB_S_36516","StateName":"Idaho"},"geometry": { "type": "Point","coordinates": [-115.35,43.2667]}},{"type": "Feature", "id":287, "properties": {"SourceCode":"SnowCourse","StationName":"COPPER RIDGE (DISC)","StationCode":"16B02","StationID":"36530","CDBCode":"CDB_S_36530","StateName":"Idaho"},"geometry": { "type": "Point","coordinates": [-116.5,47.7167]}},{"type": "Feature", "id":288, "properties": {"SourceCode":"SnowCourse","StationName":"DEMOCRAT CREEK","StationCode":"16F13","StationID":"36547","CDBCode":"CDB_S_36547","StateName":"Idaho"},"geometry": { "type": "Point","coordinates": [-116.767,43.0667]}},{"type": "Feature", "id":289, "properties": {"SourceCode":"SnowCourse","StationName":"ELEVEN MILE","StationCode":"05L07","StationID":"36797","CDBCode":"CDB_S_36797","StateName":"Colorado"},"geometry": { "type": "Point","coordinates": [-105.517,38.95]}},{"type": "Feature", "id":290, "properties": {"SourceCode":"SnowCourse","StationName":"ELKHORN","StationCode":"06J36","StationID":"36799","CDBCode":"CDB_S_36799","StateName":"Colorado"},"geometry": { "type": "Point","coordinates": [-106.917,40.9667]}},{"type": "Feature", "id":291, "properties": {"SourceCode":"SnowCourse","StationName":"EMPIRE","StationCode":"05K10","StationID":"36800","CDBCode":"CDB_S_36800","StateName":"Colorado"},"geometry": { "type": "Point","coordinates": [-105.767,39.7667]}},{"type": "Feature", "id":292, "properties": {"SourceCode":"SnowCourse","StationName":"HAHN'S PEAK","StationCode":"06J14","StationID":"36817","CDBCode":"CDB_S_36817","StateName":"Colorado"},"geometry": { "type": "Point","coordinates": [-106.917,40.8]}},{"type": "Feature", "id":293, "properties": {"SourceCode":"SnowCourse","StationName":"KEYSTONE","StationCode":"07L04","StationID":"36832","CDBCode":"CDB_S_36832","StateName":"Colorado"},"geometry": { "type": "Point","coordinates": [-107.017,38.8667]}},{"type": "Feature", "id":294, "properties": {"SourceCode":"SnowCourse","StationName":"LIZARD HEAD","StationCode":"07M03","StationID":"36847","CDBCode":"CDB_S_36847","StateName":"Colorado"},"geometry": { "type": "Point","coordinates": [-107.917,37.8]}},{"type": "Feature", "id":295, "properties": {"SourceCode":"SnowCourse","StationName":"MIDDLE FORK CAMPGROUND","StationCode":"06K12","StationID":"36865","CDBCode":"CDB_S_36865","StateName":"Colorado"},"geometry": { "type": "Point","coordinates": [-106.017,39.7667]}},{"type": "Feature", "id":296, "properties": {"SourceCode":"SnowCourse","StationName":"MINERAL CREEK","StationCode":"07M14","StationID":"36867","CDBCode":"CDB_S_36867","StateName":"Colorado"},"geometry": { "type": "Point","coordinates": [-107.717,37.85]}},{"type": "Feature", "id":297, "properties": {"SourceCode":"SnowCourse","StationName":"PARK VIEW","StationCode":"06J02","StationID":"36882","CDBCode":"CDB_S_36882","StateName":"Colorado"},"geometry": { "type": "Point","coordinates": [-106.1,40.3667]}},{"type": "Feature", "id":298, "properties": {"SourceCode":"SnowCourse","StationName":"PASS CREEK","StationCode":"06M18","StationID":"36883","CDBCode":"CDB_S_36883","StateName":"Colorado"},"geometry": { "type": "Point","coordinates": [-106.767,37.55]}},{"type": "Feature", "id":299, "properties": {"SourceCode":"SnowCourse","StationName":"BALD RIDGE","StationCode":"10C05","StationID":"35333","CDBCode":"CDB_S_35333","StateName":"Montana"},"geometry": { "type": "Point","coordinates": [-110.45,46.1167]}},{"type": "Feature", "id":300, "properties": {"SourceCode":"SnowCourse","StationName":"BASSOO PEAK","StationCode":"14B03","StationID":"35340","CDBCode":"CDB_S_35340","StateName":"Montana"},"geometry": { "type": "Point","coordinates": [-114.767,47.85]}},{"type": "Feature", "id":301, "properties": {"SourceCode":"SnowCourse","StationName":"BIG COULEE","StationCode":"10B03","StationID":"35347","CDBCode":"CDB_S_35347","StateName":"Montana"},"geometry": { "type": "Point","coordinates": [-110.567,47.4167]}},{"type": "Feature", "id":302, "properties": {"SourceCode":"SnowCourse","StationName":"BIG SKY","StationCode":"11D17","StationID":"35349","CDBCode":"CDB_S_35349","StateName":"Montana"},"geometry": { "type": "Point","coordinates": [-111.417,45.3]}},{"type": "Feature", "id":303, "properties": {"SourceCode":"SnowCourse","StationName":"BUBBLING SPRINGS","StationCode":"10C17","StationID":"35367","CDBCode":"CDB_S_35367","StateName":"Montana"},"geometry": { "type": "Point","coordinates": [-110.867,46.9]}},{"type": "Feature", "id":304, "properties": {"SourceCode":"SnowCourse","StationName":"CAMP MISERY","StationCode":"13A17","StationID":"35372","CDBCode":"CDB_S_35372","StateName":"Montana"},"geometry": { "type": "Point","coordinates": [-113.917,48.1667]}},{"type": "Feature", "id":305, "properties": {"SourceCode":"SnowCourse","StationName":"CARROT BASIN","StationCode":"11E29","StationID":"35374","CDBCode":"CDB_S_35374","StateName":"Montana"},"geometry": { "type": "Point","coordinates": [-111.267,44.9667]}},{"type": "Feature", "id":306, "properties": {"SourceCode":"SnowCourse","StationName":"CLOVER MEADOW","StationCode":"11D08","StationID":"35381","CDBCode":"CDB_S_35381","StateName":"Montana"},"geometry": { "type": "Point","coordinates": [-111.85,45.0167]}},{"type": "Feature", "id":307, "properties": {"SourceCode":"SnowCourse","StationName":"COLLEY CREEK","StationCode":"10D30","StationID":"35383","CDBCode":"CDB_S_35383","StateName":"Montana"},"geometry": { "type": "Point","coordinates": [-110.467,45.2667]}},{"type": "Feature", "id":308, "properties": {"SourceCode":"SnowCourse","StationName":"COPPER MOUNTAIN","StationCode":"12C09","StationID":"35390","CDBCode":"CDB_S_35390","StateName":"Montana"},"geometry": { "type": "Point","coordinates": [-112.417,46.0167]}},{"type": "Feature", "id":309, "properties": {"SourceCode":"SnowCourse","StationName":"DIX HILL","StationCode":"12C15","StationID":"35406","CDBCode":"CDB_S_35406","StateName":"Montana"},"geometry": { "type": "Point","coordinates": [-112.55,46.7]}},{"type": "Feature", "id":310, "properties": {"SourceCode":"SnowCourse","StationName":"FARNES MEADOW","StationCode":"10C20","StationID":"35415","CDBCode":"CDB_S_35415","StateName":"Montana"},"geometry": { "type": "Point","coordinates": [-110.85,46.9167]}},{"type": "Feature", "id":311, "properties": {"SourceCode":"SnowCourse","StationName":"JAHNKE LAKE TRAIL","StationCode":"13D27","StationID":"35458","CDBCode":"CDB_S_35458","StateName":"Montana"},"geometry": { "type": "Point","coordinates": [-113.5,45.2167]}},{"type": "Feature", "id":312, "properties": {"SourceCode":"SnowCourse","StationName":"IRENE'S CAMP","StationCode":"19A17","StationID":"35869","CDBCode":"CDB_S_35869","StateName":"Washington"},"geometry": { "type": "Point","coordinates": [-119.95,48.85]}},{"type": "Feature", "id":313, "properties": {"SourceCode":"SnowCourse","StationName":"NEW MUDDY RIVER (DISC)","StationCode":"22C06","StationID":"35919","CDBCode":"CDB_S_35919","StateName":"Washington"},"geometry": { "type": "Point","coordinates": [-122.017,46.15]}},{"type": "Feature", "id":314, "properties": {"SourceCode":"SnowCourse","StationName":"ROUND TOP MTN","StationCode":"17B07","StationID":"35942","CDBCode":"CDB_S_35942","StateName":"Washington"},"geometry": { "type": "Point","coordinates": [-117.1,47.85]}},{"type": "Feature", "id":315, "properties": {"SourceCode":"SnowCourse","StationName":"WILLAMETTE PASS SKI (DISC)","StationCode":"22F34","StationID":"36319","CDBCode":"CDB_S_36319","StateName":"Oregon"},"geometry": { "type": "Point","coordinates": [-122.017,43.65]}},{"type": "Feature", "id":316, "properties": {"SourceCode":"SnowCourse","StationName":"KISHENEHN","StationCode":"14A06","StationID":"35465","CDBCode":"CDB_S_35465","StateName":"Montana"},"geometry": { "type": "Point","coordinates": [-114.417,48.9667]}},{"type": "Feature", "id":317, "properties": {"SourceCode":"SnowCourse","StationName":"TEN MILE UPPER","StationCode":"12C04","StationID":"35567","CDBCode":"CDB_S_35567","StateName":"Montana"},"geometry": { "type": "Point","coordinates": [-112.267,46.4167]}},{"type": "Feature", "id":318, "properties": {"SourceCode":"SnowCourse","StationName":"THUNDER BASIN","StationCode":"20A07","StationID":"35983","CDBCode":"CDB_S_35983","StateName":"Washington"},"geometry": { "type": "Point","coordinates": [-120.967,48.5167]}},{"type": "Feature", "id":319, "properties": {"SourceCode":"SnowCourse","StationName":"TWIN CAMP","StationCode":"21B30","StationID":"35992","CDBCode":"CDB_S_35992","StateName":"Washington"},"geometry": { "type": "Point","coordinates": [-121.767,47.1167]}},{"type": "Feature", "id":320, "properties": {"SourceCode":"SnowCourse","StationName":"WALTERS FLAT (DISC)","StationCode":"20B15","StationID":"35999","CDBCode":"CDB_S_35999","StateName":"Washington"},"geometry": { "type": "Point","coordinates": [-120.45,47.2]}},{"type": "Feature", "id":321, "properties": {"SourceCode":"SnowCourse","StationName":"BUCK PASTURE AM","StationCode":"18F06","StationID":"36049","CDBCode":"CDB_S_36049","StateName":"Oregon"},"geometry": { "type": "Point","coordinates": [-118.417,43.0167]}},{"type": "Feature", "id":322, "properties": {"SourceCode":"SnowCourse","StationName":"TROUT CREEK, UPPER - AM","StationCode":"15H11","StationID":"36469","CDBCode":"CDB_S_36469","StateName":"Nevada"},"geometry": { "type": "Point","coordinates": [-115.017,41.0667]}},{"type": "Feature", "id":323, "properties": {"SourceCode":"SnowCourse","StationName":"ANTELOPE RIDGE (DISC)","StationCode":"16G06","StationID":"36476","CDBCode":"CDB_S_36476","StateName":"Idaho"},"geometry": { "type": "Point","coordinates": [-116.417,42.65]}},{"type": "Feature", "id":324, "properties": {"SourceCode":"SnowCourse","StationName":"ASPEN HALL PASS AM (DISC)","StationCode":"13E21","StationID":"36478","CDBCode":"CDB_S_36478","StateName":"Idaho"},"geometry": { "type": "Point","coordinates": [-113.15,44.75]}},{"type": "Feature", "id":325, "properties": {"SourceCode":"SnowCourse","StationName":"BANNER SUMMIT (DISC)","StationCode":"15E11","StationID":"36485","CDBCode":"CDB_S_36485","StateName":"Idaho"},"geometry": { "type": "Point","coordinates": [-115.217,44.3]}},{"type": "Feature", "id":326, "properties": {"SourceCode":"SnowCourse","StationName":"BELOW ROLAND (DISC)","StationCode":"15B06","StationID":"36492","CDBCode":"CDB_S_36492","StateName":"Idaho"},"geometry": { "type": "Point","coordinates": [-115.667,47.3667]}},{"type": "Feature", "id":327, "properties": {"SourceCode":"SnowCourse","StationName":"COZY COVE (DISC)","StationCode":"15E08","StationID":"36535","CDBCode":"CDB_S_36535","StateName":"Idaho"},"geometry": { "type": "Point","coordinates": [-115.65,44.2667]}},{"type": "Feature", "id":328, "properties": {"SourceCode":"SnowCourse","StationName":"CRATER MEADOWS (DISC)","StationCode":"15C09","StationID":"36537","CDBCode":"CDB_S_36537","StateName":"Idaho"},"geometry": { "type": "Point","coordinates": [-115.267,46.5667]}},{"type": "Feature", "id":329, "properties": {"SourceCode":"SnowCourse","StationName":"EMPIRE #2","StationCode":"05K29","StationID":"36801","CDBCode":"CDB_S_36801","StateName":"Colorado"},"geometry": { "type": "Point","coordinates": [-105.767,39.75]}},{"type": "Feature", "id":330, "properties": {"SourceCode":"SnowCourse","StationName":"FISH CREEK","StationCode":"06J24","StationID":"36803","CDBCode":"CDB_S_36803","StateName":"Colorado"},"geometry": { "type": "Point","coordinates": [-106.667,40.5]}},{"type": "Feature", "id":331, "properties": {"SourceCode":"SnowCourse","StationName":"JOE WRIGHT","StationCode":"05J37","StationID":"36830","CDBCode":"CDB_S_36830","StateName":"Colorado"},"geometry": { "type": "Point","coordinates": [-105.867,40.5167]}},{"type": "Feature", "id":332, "properties": {"SourceCode":"SnowCourse","StationName":"LOVELAND LIFT","StationCode":"05K24","StationID":"36855","CDBCode":"CDB_S_36855","StateName":"Colorado"},"geometry": { "type": "Point","coordinates": [-105.65,39.6667]}},{"type": "Feature", "id":333, "properties": {"SourceCode":"SnowCourse","StationName":"MC CLURE PASS","StationCode":"07K09","StationID":"36860","CDBCode":"CDB_S_36860","StateName":"Colorado"},"geometry": { "type": "Point","coordinates": [-107.267,39.1167]}},{"type": "Feature", "id":334, "properties": {"SourceCode":"SnowCourse","StationName":"MONARCH PASS","StationCode":"06L04","StationID":"36871","CDBCode":"CDB_S_36871","StateName":"Colorado"},"geometry": { "type": "Point","coordinates": [-106.317,38.5167]}},{"type": "Feature", "id":335, "properties": {"SourceCode":"SnowCourse","StationName":"OPHIR LOOP","StationCode":"07M18","StationID":"36878","CDBCode":"CDB_S_36878","StateName":"Colorado"},"geometry": { "type": "Point","coordinates": [-107.817,37.9167]}},{"type": "Feature", "id":336, "properties": {"SourceCode":"SnowCourse","StationName":"PARK CONE","StationCode":"06L02","StationID":"36880","CDBCode":"CDB_S_36880","StateName":"Colorado"},"geometry": { "type": "Point","coordinates": [-106.567,38.8167]}},{"type": "Feature", "id":337, "properties": {"SourceCode":"SnowCourse","StationName":"PLATORO","StationCode":"06M09","StationID":"36887","CDBCode":"CDB_S_36887","StateName":"Colorado"},"geometry": { "type": "Point","coordinates": [-106.55,37.35]}},{"type": "Feature", "id":338, "properties": {"SourceCode":"SnowCourse","StationName":"SANTA MARIA","StationCode":"07M17","StationID":"36903","CDBCode":"CDB_S_36903","StateName":"Colorado"},"geometry": { "type": "Point","coordinates": [-107.117,37.8167]}},{"type": "Feature", "id":339, "properties": {"SourceCode":"SnowCourse","StationName":"SPRUCE CREEK","StationCode":"05L10","StationID":"36910","CDBCode":"CDB_S_36910","StateName":"Colorado"},"geometry": { "type": "Point","coordinates": [-105.667,38.2167]}},{"type": "Feature", "id":340, "properties": {"SourceCode":"SnowCourse","StationName":"UNIVERSITY CAMP","StationCode":"05J08","StationID":"36928","CDBCode":"CDB_S_36928","StateName":"Colorado"},"geometry": { "type": "Point","coordinates": [-105.567,40.0167]}},{"type": "Feature", "id":341, "properties": {"SourceCode":"SnowCourse","StationName":"SUMALLO RIVER WEST","StationCode":"3D01C","StationID":"37203","CDBCode":"CDB_S_37203","StateName":"British Columbia"},"geometry": { "type": "Point","coordinates": [-121.217,49.25]}},{"type": "Feature", "id":342, "properties": {"SourceCode":"SnowCourse","StationName":"VASEUX CREEK","StationCode":"2F20","StationID":"37212","CDBCode":"CDB_S_37212","StateName":"British Columbia"},"geometry": { "type": "Point","coordinates": [-119.317,49.2667]}},{"type": "Feature", "id":343, "properties": {"SourceCode":"SnowCourse","StationName":"WAHLEACH LAKE","StationCode":"1D09","StationID":"37214","CDBCode":"CDB_S_37214","StateName":"British Columbia"},"geometry": { "type": "Point","coordinates": [-121.567,49.2167]}},{"type": "Feature", "id":344, "properties": {"SourceCode":"SnowCourse","StationName":"BLUEBERRY HILL","StationCode":"49N07","StationID":"37239","CDBCode":"CDB_S_37239","StateName":"Alaska"},"geometry": { "type": "Point","coordinates": [-149.967,62.7833]}},{"type": "Feature", "id":345, "properties": {"SourceCode":"SnowCourse","StationName":"COAL CREEK","StationCode":"43Q02","StationID":"37264","CDBCode":"CDB_S_37264","StateName":"Alaska"},"geometry": { "type": "Point","coordinates": [-143.15,65.3]}},{"type": "Feature", "id":346, "properties": {"SourceCode":"SnowCourse","StationName":"DENALI VIEW","StationCode":"50N06","StationID":"37280","CDBCode":"CDB_S_37280","StateName":"Alaska"},"geometry": { "type": "Point","coordinates": [-151.233,62.5833]}},{"type": "Feature", "id":347, "properties": {"SourceCode":"SnowCourse","StationName":"EAGLE LAKE","StationCode":"51K06","StationID":"37287","CDBCode":"CDB_S_37287","StateName":"Alaska"},"geometry": { "type": "Point","coordinates": [-151.117,59.8167]}},{"type": "Feature", "id":348, "properties": {"SourceCode":"SnowCourse","StationName":"BADGER PASS","StationCode":"13A15","StationID":"35331","CDBCode":"CDB_S_35331","StateName":"Montana"},"geometry": { "type": "Point","coordinates": [-113.017,48.1167]}},{"type": "Feature", "id":349, "properties": {"SourceCode":"SnowCourse","StationName":"GOAT MOUNTAIN","StationCode":"12B07","StationID":"35432","CDBCode":"CDB_S_35432","StateName":"Montana"},"geometry": { "type": "Point","coordinates": [-112.917,47.65]}},{"type": "Feature", "id":350, "properties": {"SourceCode":"SnowCourse","StationName":"GOLD STONE","StationCode":"13D09","StationID":"35434","CDBCode":"CDB_S_35434","StateName":"Montana"},"geometry": { "type": "Point","coordinates": [-113.517,45.15]}},{"type": "Feature", "id":351, "properties": {"SourceCode":"SnowCourse","StationName":"GRIZZLY PEAK","StationCode":"09D05","StationID":"35439","CDBCode":"CDB_S_35439","StateName":"Montana"},"geometry": { "type": "Point","coordinates": [-109.35,45.1667]}},{"type": "Feature", "id":352, "properties": {"SourceCode":"SnowCourse","StationName":"HAND CREEK","StationCode":"14A14","StationID":"35441","CDBCode":"CDB_S_35441","StateName":"Montana"},"geometry": { "type": "Point","coordinates": [-114.817,48.3]}},{"type": "Feature", "id":353, "properties": {"SourceCode":"SnowCourse","StationName":"JACK CREEK","StationCode":"11D05","StationID":"35457","CDBCode":"CDB_S_35457","StateName":"Montana"},"geometry": { "type": "Point","coordinates": [-111.55,45.3167]}},{"type": "Feature", "id":354, "properties": {"SourceCode":"SnowCourse","StationName":"GHOST FOREST (DISC)","StationCode":"21C04","StationID":"35850","CDBCode":"CDB_S_35850","StateName":"Washington"},"geometry": { "type": "Point","coordinates": [-121.767,46.7667]}},{"type": "Feature", "id":355, "properties": {"SourceCode":"SnowCourse","StationName":"GOAT CREEK","StationCode":"18A04","StationID":"35852","CDBCode":"CDB_S_35852","StateName":"Washington"},"geometry": { "type": "Point","coordinates": [-118.35,48.8667]}},{"type": "Feature", "id":356, "properties": {"SourceCode":"SnowCourse","StationName":"INDIAN ROCK","StationCode":"20D02","StationID":"35868","CDBCode":"CDB_S_35868","StateName":"Washington"},"geometry": { "type": "Point","coordinates": [-120.767,45.9667]}},{"type": "Feature", "id":357, "properties": {"SourceCode":"SnowCourse","StationName":"LONE PINE SHELTER","StationCode":"21C26","StationID":"35884","CDBCode":"CDB_S_35884","StateName":"Washington"},"geometry": { "type": "Point","coordinates": [-121.967,46.2667]}},{"type": "Feature", "id":358, "properties": {"SourceCode":"SnowCourse","StationName":"MANASHTASH (DISC)","StationCode":"20C01","StationID":"35891","CDBCode":"CDB_S_35891","StateName":"Washington"},"geometry": { "type": "Point","coordinates": [-120.767,46.95]}},{"type": "Feature", "id":359, "properties": {"SourceCode":"SnowCourse","StationName":"MARTEN LAKE","StationCode":"21A09","StationID":"35893","CDBCode":"CDB_S_35893","StateName":"Washington"},"geometry": { "type": "Point","coordinates": [-121.717,48.7667]}},{"type": "Feature", "id":360, "properties": {"SourceCode":"SnowCourse","StationName":"MIRROR LAKE","StationCode":"20A39","StationID":"35900","CDBCode":"CDB_S_35900","StateName":"Washington"},"geometry": { "type": "Point","coordinates": [-120.65,48.15]}},{"type": "Feature", "id":361, "properties": {"SourceCode":"SnowCourse","StationName":"MUTTON CREEK NO.2 SP (DISC)","StationCode":"19A11","StationID":"35916","CDBCode":"CDB_S_35916","StateName":"Washington"},"geometry": { "type": "Point","coordinates": [-119.867,48.7]}},{"type": "Feature", "id":362, "properties": {"SourceCode":"SnowCourse","StationName":"NEW LAKE HOZOMEEN","StationCode":"21A30","StationID":"35918","CDBCode":"CDB_S_35918","StateName":"Washington"},"geometry": { "type": "Point","coordinates": [-121.017,48.95]}},{"type": "Feature", "id":363, "properties": {"SourceCode":"SnowCourse","StationName":"OLNEY PASS","StationCode":"21B53","StationID":"35925","CDBCode":"CDB_S_35925","StateName":"Washington"},"geometry": { "type": "Point","coordinates": [-121.617,47.9167]}},{"type": "Feature", "id":364, "properties": {"SourceCode":"SnowCourse","StationName":"PANORAMA NEW (DISC)","StationCode":"21A26","StationID":"35927","CDBCode":"CDB_S_35927","StateName":"Washington"},"geometry": { "type": "Point","coordinates": [-121.667,48.8667]}},{"type": "Feature", "id":365, "properties": {"SourceCode":"SnowCourse","StationName":"ROCKY CREEK","StationCode":"21A12","StationID":"35941","CDBCode":"CDB_S_35941","StateName":"Washington"},"geometry": { "type": "Point","coordinates": [-121.8,48.6667]}},{"type": "Feature", "id":366, "properties": {"SourceCode":"SnowCourse","StationName":"KINGS HILL","StationCode":"10C01","StationID":"35464","CDBCode":"CDB_S_35464","StateName":"Montana"},"geometry": { "type": "Point","coordinates": [-110.7,46.85]}},{"type": "Feature", "id":367, "properties": {"SourceCode":"SnowCourse","StationName":"KIWANIS CAMP","StationCode":"09A04","StationID":"35466","CDBCode":"CDB_S_35466","StateName":"Montana"},"geometry": { "type": "Point","coordinates": [-109.667,48.2667]}},{"type": "Feature", "id":368, "properties": {"SourceCode":"SnowCourse","StationName":"LAKE CREEK","StationCode":"11E22","StationID":"35468","CDBCode":"CDB_S_35468","StateName":"Montana"},"geometry": { "type": "Point","coordinates": [-111.567,44.8167]}},{"type": "Feature", "id":369, "properties": {"SourceCode":"SnowCourse","StationName":"MUDD LAKE","StationCode":"13D25","StationID":"35498","CDBCode":"CDB_S_35498","StateName":"Montana"},"geometry": { "type": "Point","coordinates": [-113.417,45.9167]}},{"type": "Feature", "id":370, "properties": {"SourceCode":"SnowCourse","StationName":"PICKET PIN LOWER","StationCode":"09D13","StationID":"35518","CDBCode":"CDB_S_35518","StateName":"Montana"},"geometry": { "type": "Point","coordinates": [-109.917,45.4167]}},{"type": "Feature", "id":371, "properties": {"SourceCode":"SnowCourse","StationName":"SILVER RUN","StationCode":"09D18","StationID":"35543","CDBCode":"CDB_S_35543","StateName":"Montana"},"geometry": { "type": "Point","coordinates": [-109.35,45.15]}},{"type": "Feature", "id":372, "properties": {"SourceCode":"SnowCourse","StationName":"TEPEE CREEK","StationCode":"11E24","StationID":"35568","CDBCode":"CDB_S_35568","StateName":"Montana"},"geometry": { "type": "Point","coordinates": [-111.7,44.7667]}},{"type": "Feature", "id":373, "properties": {"SourceCode":"SnowCourse","StationName":"TIMBERED PEAK AM (DISC)","StationCode":"21D18","StationID":"35984","CDBCode":"CDB_S_35984","StateName":"Washington"},"geometry": { "type": "Point","coordinates": [-122.067,45.9667]}},{"type": "Feature", "id":374, "properties": {"SourceCode":"SnowCourse","StationName":"TOATS COULEE","StationCode":"19A06","StationID":"35986","CDBCode":"CDB_S_35986","StateName":"Washington"},"geometry": { "type": "Point","coordinates": [-119.717,48.85]}},{"type": "Feature", "id":375, "properties": {"SourceCode":"SnowCourse","StationName":"TUNNEL AVENUE","StationCode":"21B08","StationID":"35991","CDBCode":"CDB_S_35991","StateName":"Washington"},"geometry": { "type": "Point","coordinates": [-121.35,47.3167]}},{"type": "Feature", "id":376, "properties": {"SourceCode":"SnowCourse","StationName":"ANTHONY SKI HILL (DISC)","StationCode":"18E33","StationID":"36016","CDBCode":"CDB_S_36016","StateName":"Oregon"},"geometry": { "type": "Point","coordinates": [-118.117,44.8167]}},{"type": "Feature", "id":377, "properties": {"SourceCode":"SnowCourse","StationName":"BEATTY PP&L (DISC)","StationCode":"21G10","StationID":"36027","CDBCode":"CDB_S_36027","StateName":"Oregon"},"geometry": { "type": "Point","coordinates": [-122.267,42.4167]}},{"type": "Feature", "id":378, "properties": {"SourceCode":"SnowCourse","StationName":"BLUE MOUNTAIN SUMMIT (DISC)","StationCode":"18E13","StationID":"36041","CDBCode":"CDB_S_36041","StateName":"Oregon"},"geometry": { "type": "Point","coordinates": [-118.317,44.5167]}},{"type": "Feature", "id":379, "properties": {"SourceCode":"SnowCourse","StationName":"WARD MOUNTAIN #2","StationCode":"14K05","StationID":"36470","CDBCode":"CDB_S_36470","StateName":"Nevada"},"geometry": { "type": "Point","coordinates": [-114.817,39.1167]}},{"type": "Feature", "id":380, "properties": {"SourceCode":"SnowCourse","StationName":"ASPEN GROVE (DISC)","StationCode":"11F10","StationID":"36477","CDBCode":"CDB_S_36477","StateName":"Idaho"},"geometry": { "type": "Point","coordinates": [-111.567,43.45]}},{"type": "Feature", "id":381, "properties": {"SourceCode":"SnowCourse","StationName":"ATLANTA MINE (DISC)","StationCode":"15F18","StationID":"36479","CDBCode":"CDB_S_36479","StateName":"Idaho"},"geometry": { "type": "Point","coordinates": [-115.117,43.7667]}},{"type": "Feature", "id":382, "properties": {"SourceCode":"SnowCourse","StationName":"BOGUS BASIN ROAD","StationCode":"16F04","StationID":"36504","CDBCode":"CDB_S_36504","StateName":"Idaho"},"geometry": { "type": "Point","coordinates": [-116.117,43.7167]}},{"type": "Feature", "id":383, "properties": {"SourceCode":"SnowCourse","StationName":"CRAB CREEK (DISC)","StationCode":"11E37","StationID":"36536","CDBCode":"CDB_S_36536","StateName":"Idaho"},"geometry": { "type": "Point","coordinates": [-112,44.4167]}},{"type": "Feature", "id":384, "properties": {"SourceCode":"SnowCourse","StationName":"DRY LAKE","StationCode":"06J01","StationID":"36795","CDBCode":"CDB_S_36795","StateName":"Colorado"},"geometry": { "type": "Point","coordinates": [-106.767,40.5167]}},{"type": "Feature", "id":385, "properties": {"SourceCode":"SnowCourse","StationName":"FIDDLER GULCH","StationCode":"06K05","StationID":"36802","CDBCode":"CDB_S_36802","StateName":"Colorado"},"geometry": { "type": "Point","coordinates": [-106.267,39.3667]}},{"type": "Feature", "id":386, "properties": {"SourceCode":"SnowCourse","StationName":"LAKE CITY","StationCode":"07M08","StationID":"36838","CDBCode":"CDB_S_36838","StateName":"Colorado"},"geometry": { "type": "Point","coordinates": [-107.25,37.9667]}},{"type": "Feature", "id":387, "properties": {"SourceCode":"SnowCourse","StationName":"LOVE LAKE","StationCode":"07M10","StationID":"36854","CDBCode":"CDB_S_36854","StateName":"Colorado"},"geometry": { "type": "Point","coordinates": [-107.017,37.6667]}},{"type": "Feature", "id":388, "properties": {"SourceCode":"SnowCourse","StationName":"MOLAS LAKE","StationCode":"07M12","StationID":"36868","CDBCode":"CDB_S_36868","StateName":"Colorado"},"geometry": { "type": "Point","coordinates": [-107.667,37.75]}},{"type": "Feature", "id":389, "properties": {"SourceCode":"SnowCourse","StationName":"MONARCH OFFSHOOT","StationCode":"06L09","StationID":"36870","CDBCode":"CDB_S_36870","StateName":"Colorado"},"geometry": { "type": "Point","coordinates": [-106.317,38.5167]}},