{"type":"FeatureCollection","features": [{"type": "Feature", "id":0, "properties": {"SourceCode":"RAWS","StationName":"Anacapa Island California","StationCode":"CANA","StationID":"49648","CDBCode":"CDB_S_49648","StateName":"California"},"geometry": { "type": "Point","coordinates": [-119.359718,34.01583]}},{"type": "Feature", "id":1, "properties": {"SourceCode":"RAWS","StationName":"Antelope Montana","StationCode":"MANT","StationID":"49655","CDBCode":"CDB_S_49655","StateName":"Montana"},"geometry": { "type": "Point","coordinates": [-112.541672,44.68667]}},{"type": "Feature", "id":2, "properties": {"SourceCode":"RAWS","StationName":"Assay - Hatch 10SW","StationCode":"ASSA","StationID":"49678","CDBCode":"CDB_S_49678","StateName":"Utah"},"geometry": { "type": "Point","coordinates": [-112.555557,37.51667]}},{"type": "Feature", "id":3, "properties": {"SourceCode":"RAWS","StationName":"Deerborn Montana","StationCode":"MDEB","StationID":"50064","CDBCode":"CDB_S_50064","StateName":"Montana"},"geometry": { "type": "Point","coordinates": [-111.900833,47.13278]}},{"type": "Feature", "id":4, "properties": {"SourceCode":"RAWS","StationName":"Delta Rd Mississippi","StationCode":"MDRD","StationID":"50066","CDBCode":"CDB_S_50066","StateName":"Mississippi"},"geometry": { "type": "Point","coordinates": [-90,32.81]}},{"type": "Feature", "id":5, "properties": {"SourceCode":"RAWS","StationName":"Desatoya Mountain Nevada","StationCode":"NDES","StationID":"50071","CDBCode":"CDB_S_50071","StateName":"Nevada"},"geometry": { "type": "Point","coordinates": [-117.584442,39.30111]}},{"type": "Feature", "id":6, "properties": {"SourceCode":"RAWS","StationName":"Eastport New York","StationCode":"YEAS","StationID":"50130","CDBCode":"CDB_S_50130","StateName":"New York"},"geometry": { "type": "Point","coordinates": [-72.7,40.8]}},{"type": "Feature", "id":7, "properties": {"SourceCode":"RAWS","StationName":"El Portal California","StationCode":"CELP","StationID":"50141","CDBCode":"CDB_S_50141","StateName":"California"},"geometry": { "type": "Point","coordinates": [-119.78611,37.67556]}},{"type": "Feature", "id":8, "properties": {"SourceCode":"RAWS","StationName":"Elkhorn Wyoming","StationCode":"WELK","StationID":"50146","CDBCode":"CDB_S_50146","StateName":"Wyoming"},"geometry": { "type": "Point","coordinates": [-109.611107,43.67944]}},{"type": "Feature", "id":9, "properties": {"SourceCode":"RAWS","StationName":"Elmore Vermont","StationCode":"VELM","StationID":"50148","CDBCode":"CDB_S_50148","StateName":"Vermont"},"geometry": { "type": "Point","coordinates": [-72.52944,44.54306]}},{"type": "Feature", "id":10, "properties": {"SourceCode":"RAWS","StationName":"Entiat Washington","StationCode":"WENT","StationID":"50155","CDBCode":"CDB_S_50155","StateName":"Washington"},"geometry": { "type": "Point","coordinates": [-120.210831,47.67444]}},{"type": "Feature", "id":11, "properties": {"SourceCode":"RAWS","StationName":"Lind Wisconsin","StationCode":"WLIN","StationID":"50539","CDBCode":"CDB_S_50539","StateName":"Wisconsin"},"geometry": { "type": "Point","coordinates": [-92.79556,45.73972]}},{"type": "Feature", "id":12, "properties": {"SourceCode":"RAWS","StationName":"Livengood Alaska","StationCode":"ALIV","StationID":"50559","CDBCode":"CDB_S_50559","StateName":"Alaska"},"geometry": { "type": "Point","coordinates": [-148.721664,65.42361]}},{"type": "Feature", "id":13, "properties": {"SourceCode":"RAWS","StationName":"Loess Hills State Forest Iowa","StationCode":"ILOE","StationID":"50564","CDBCode":"CDB_S_50564","StateName":"Iowa"},"geometry": { "type": "Point","coordinates": [-95.92806,41.83222]}},{"type": "Feature", "id":14, "properties": {"SourceCode":"RAWS","StationName":"Log Creek Oregon","StationCode":"OLOG","StationID":"50566","CDBCode":"CDB_S_50566","StateName":"Oregon"},"geometry": { "type": "Point","coordinates": [-121.903061,45.51]}},{"type": "Feature", "id":15, "properties": {"SourceCode":"RAWS","StationName":"Lookout Mountain Colorado","StationCode":"CLOO","StationID":"50573","CDBCode":"CDB_S_50573","StateName":"Colorado"},"geometry": { "type": "Point","coordinates": [-105.250282,39.72417]}},{"type": "Feature", "id":16, "properties": {"SourceCode":"RAWS","StationName":"Los Banos California","StationCode":"CLAB","StationID":"50575","CDBCode":"CDB_S_50575","StateName":"California"},"geometry": { "type": "Point","coordinates": [-121.053062,37.05472]}},{"type": "Feature", "id":17, "properties": {"SourceCode":"RAWS","StationName":"Red River Idaho","StationCode":"IRED","StationID":"50923","CDBCode":"CDB_S_50923","StateName":"Idaho"},"geometry": { "type": "Point","coordinates": [-115.3375,45.7125]}},{"type": "Feature", "id":18, "properties": {"SourceCode":"RAWS","StationName":"Roberts Butte Oregon","StationCode":"OROB","StationID":"50943","CDBCode":"CDB_S_50943","StateName":"Oregon"},"geometry": { "type": "Point","coordinates": [-117.20639,45.68167]}},{"type": "Feature", "id":19, "properties": {"SourceCode":"RAWS","StationName":"Sabine North Texas","StationCode":"TSBN","StationID":"50975","CDBCode":"CDB_S_50975","StateName":"Texas"},"geometry": { "type": "Point","coordinates": [-93.90972,31.70417]}},{"type": "Feature", "id":20, "properties": {"SourceCode":"RAWS","StationName":"San Carlos #1 Arizona","StationCode":"ASCA","StationID":"50991","CDBCode":"CDB_S_50991","StateName":"Arizona"},"geometry": { "type": "Point","coordinates": [-110.45694,33.37167]}},{"type": "Feature", "id":21, "properties": {"SourceCode":"RAWS","StationName":"Santa Fe Dam California","StationCode":"CSFD","StationID":"51007","CDBCode":"CDB_S_51007","StateName":"California"},"geometry": { "type": "Point","coordinates": [-117.945831,34.12083]}},{"type": "Feature", "id":22, "properties": {"SourceCode":"RAWS","StationName":"Yucca Gap Nevada","StationCode":"NYUC","StationID":"51341","CDBCode":"CDB_S_51341","StateName":"Nevada"},"geometry": { "type": "Point","coordinates": [-115.33139,36.43667]}},{"type": "Feature", "id":23, "properties": {"SourceCode":"RAWS","StationName":"Yurok California","StationCode":"CYUR","StationID":"51343","CDBCode":"CDB_S_51343","StateName":"California"},"geometry": { "type": "Point","coordinates": [-123.8575,41.28972]}},{"type": "Feature", "id":24, "properties": {"SourceCode":"RAWS","StationName":"Zuni Buttes New Mexico","StationCode":"XZUB","StationID":"51350","CDBCode":"CDB_S_51350","StateName":"New Mexico"},"geometry": { "type": "Point","coordinates": [-108.941391,35.13917]}},{"type": "Feature", "id":25, "properties": {"SourceCode":"RAWS","StationName":"Black Lake Alaska","StationCode":"ABLK","StationID":"51359","CDBCode":"CDB_S_51359","StateName":"Alaska"},"geometry": { "type": "Point","coordinates": [-157.278061,57.17917]}},{"type": "Feature", "id":26, "properties": {"SourceCode":"RAWS","StationName":"Coronado Portable #1 Arizona","StationCode":"ACOR","StationID":"51375","CDBCode":"CDB_S_51375","StateName":"Arizona"},"geometry": { "type": "Point","coordinates": [-110.4,32.2]}},{"type": "Feature", "id":27, "properties": {"SourceCode":"RAWS","StationName":"Copper Basin Arizona","StationCode":"ACPB","StationID":"51377","CDBCode":"CDB_S_51377","StateName":"Arizona"},"geometry": { "type": "Point","coordinates": [-112.55,34.48333]}},{"type": "Feature", "id":28, "properties": {"SourceCode":"RAWS","StationName":"Devil Mountain Alaska","StationCode":"ADEV","StationID":"51384","CDBCode":"CDB_S_51384","StateName":"Alaska"},"geometry": { "type": "Point","coordinates": [-164.530823,66.27583]}},{"type": "Feature", "id":29, "properties": {"SourceCode":"RAWS","StationName":"Francis Mtn Arizona","StationCode":"AFRN","StationID":"51391","CDBCode":"CDB_S_51391","StateName":"Arizona"},"geometry": { "type": "Point","coordinates": [-112.6,34.48333]}},{"type": "Feature", "id":30, "properties": {"SourceCode":"RAWS","StationName":"North White River Arizona","StationCode":"ANWH","StationID":"51420","CDBCode":"CDB_S_51420","StateName":"Arizona"},"geometry": { "type": "Point","coordinates": [-109.964172,33.83667]}},{"type": "Feature", "id":31, "properties": {"SourceCode":"RAWS","StationName":"Polk Peak Alaska","StationCode":"APKP","StationID":"51425","CDBCode":"CDB_S_51425","StateName":"Alaska"},"geometry": { "type": "Point","coordinates": [-132.477783,55.35361]}},{"type": "Feature", "id":32, "properties": {"SourceCode":"RAWS","StationName":"Point McKenzie Alaska","StationCode":"APMK","StationID":"51427","CDBCode":"CDB_S_51427","StateName":"Alaska"},"geometry": { "type": "Point","coordinates": [-150.016663,61.38333]}},{"type": "Feature", "id":33, "properties": {"SourceCode":"RAWS","StationName":"Safford Arizona","StationCode":"ASAF","StationID":"51434","CDBCode":"CDB_S_51434","StateName":"Arizona"},"geometry": { "type": "Point","coordinates": [-110.668327,31.76528]}},{"type": "Feature", "id":34, "properties": {"SourceCode":"RAWS","StationName":"Serpentine Alaska","StationCode":"ASER","StationID":"51436","CDBCode":"CDB_S_51436","StateName":"Alaska"},"geometry": { "type": "Point","coordinates": [-164.707779,65.85222]}},{"type": "Feature", "id":35, "properties": {"SourceCode":"RAWS","StationName":"Red Rock Peak Idaho","StationCode":"IRRP","StationID":"51759","CDBCode":"CDB_S_51759","StateName":"Idaho"},"geometry": { "type": "Point","coordinates": [-114.418327,44.98778]}},{"type": "Feature", "id":36, "properties": {"SourceCode":"RAWS","StationName":"Bandy Ranch Montana","StationCode":"MBAN","StationID":"51795","CDBCode":"CDB_S_51795","StateName":"Montana"},"geometry": { "type": "Point","coordinates": [-113.45,47.11667]}},{"type": "Feature", "id":37, "properties": {"SourceCode":"RAWS","StationName":"Coyote Meadow - Portable Montana","StationCode":"MCOY","StationID":"51809","CDBCode":"CDB_S_51809","StateName":"Montana"},"geometry": { "type": "Point","coordinates": [-113.916672,46.1]}},{"type": "Feature", "id":38, "properties": {"SourceCode":"RAWS","StationName":"Mountain Grove Missouri","StationCode":"MMGR","StationID":"51834","CDBCode":"CDB_S_51834","StateName":"Missouri"},"geometry": { "type": "Point","coordinates": [-92.26667,37.15]}},{"type": "Feature", "id":39, "properties": {"SourceCode":"RAWS","StationName":"Poplarville Mississippi","StationCode":"MPPV","StationID":"51843","CDBCode":"CDB_S_51843","StateName":"Mississippi"},"geometry": { "type": "Point","coordinates": [-89.54611,30.66778]}},{"type": "Feature", "id":40, "properties": {"SourceCode":"RAWS","StationName":"Big Knob Pennsylvania","StationCode":"PBKN","StationID":"49755","CDBCode":"CDB_S_49755","StateName":"Pennsylvania"},"geometry": { "type": "Point","coordinates": [-77.54778,40.3575]}},{"type": "Feature", "id":41, "properties": {"SourceCode":"RAWS","StationName":"Big Oaks Indiana","StationCode":"IBIO","StationID":"49757","CDBCode":"CDB_S_49757","StateName":"Indiana"},"geometry": { "type": "Point","coordinates": [-85.3625,38.92528]}},{"type": "Feature", "id":42, "properties": {"SourceCode":"RAWS","StationName":"Black Diamond California","StationCode":"CBKD","StationID":"49773","CDBCode":"CDB_S_49773","StateName":"California"},"geometry": { "type": "Point","coordinates": [-121.884438,37.95]}},{"type": "Feature", "id":43, "properties": {"SourceCode":"RAWS","StationName":"Bluff Creek Montana","StationCode":"MBLU","StationID":"49798","CDBCode":"CDB_S_49798","StateName":"Montana"},"geometry": { "type": "Point","coordinates": [-106.945557,48.87194]}},{"type": "Feature", "id":44, "properties": {"SourceCode":"RAWS","StationName":"Brasstown #1 Georgia","StationCode":"GBRA","StationID":"49821","CDBCode":"CDB_S_49821","StateName":"Georgia"},"geometry": { "type": "Point","coordinates": [-83.71,34.80278]}},{"type": "Feature", "id":45, "properties": {"SourceCode":"RAWS","StationName":"Brazoria NWR Texas","StationCode":"TBRA","StationID":"49823","CDBCode":"CDB_S_49823","StateName":"Texas"},"geometry": { "type": "Point","coordinates": [-95.29167,29.14167]}},{"type": "Feature", "id":46, "properties": {"SourceCode":"RAWS","StationName":"Falcon Lake Texas","StationCode":"TFAL","StationID":"50171","CDBCode":"CDB_S_50171","StateName":"Texas"},"geometry": { "type": "Point","coordinates": [-99.13556,26.55472]}},{"type": "Feature", "id":47, "properties": {"SourceCode":"RAWS","StationName":"Fall Mountain Oregon","StationCode":"OFAL","StationID":"50173","CDBCode":"CDB_S_50173","StateName":"Oregon"},"geometry": { "type": "Point","coordinates": [-119.033333,44.29389]}},{"type": "Feature", "id":48, "properties": {"SourceCode":"RAWS","StationName":"Fielding Montana","StationCode":"MFIE","StationID":"50182","CDBCode":"CDB_S_50182","StateName":"Montana"},"geometry": { "type": "Point","coordinates": [-113.435562,48.27778]}},{"type": "Feature", "id":49, "properties": {"SourceCode":"RAWS","StationName":"Fish Fin Rim Oregon","StationCode":"OFIS","StationID":"50191","CDBCode":"CDB_S_50191","StateName":"Oregon"},"geometry": { "type": "Point","coordinates": [-119.178329,42.47222]}},{"type": "Feature", "id":50, "properties": {"SourceCode":"RAWS","StationName":"Flagstaff Arizona","StationCode":"AFLG","StationID":"50198","CDBCode":"CDB_S_50198","StateName":"Arizona"},"geometry": { "type": "Point","coordinates": [-111.675,35.145]}},{"type": "Feature", "id":51, "properties": {"SourceCode":"RAWS","StationName":"Fort Belknap Montana","StationCode":"MFOR","StationID":"50207","CDBCode":"CDB_S_50207","StateName":"Montana"},"geometry": { "type": "Point","coordinates": [-108.718887,48.30417]}},{"type": "Feature", "id":52, "properties": {"SourceCode":"RAWS","StationName":"Alpine Kentucky","StationCode":"KALP","StationID":"49645","CDBCode":"CDB_S_49645","StateName":"Kentucky"},"geometry": { "type": "Point","coordinates": [-85.38028,36.79556]}},{"type": "Feature", "id":53, "properties": {"SourceCode":"RAWS","StationName":"Atlanta Missouri","StationCode":"MATL","StationID":"49681","CDBCode":"CDB_S_49681","StateName":"Missouri"},"geometry": { "type": "Point","coordinates": [-92.52056,39.86972]}},{"type": "Feature", "id":54, "properties": {"SourceCode":"RAWS","StationName":"Backbone California","StationCode":"CBAC","StationID":"49688","CDBCode":"CDB_S_49688","StateName":"California"},"geometry": { "type": "Point","coordinates": [-123.14222,40.88917]}},{"type": "Feature", "id":55, "properties": {"SourceCode":"RAWS","StationName":"Baker Flat Nevada","StationCode":"NBAK","StationID":"49695","CDBCode":"CDB_S_49695","StateName":"Nevada"},"geometry": { "type": "Point","coordinates": [-114.2175,39.00194]}},{"type": "Feature", "id":56, "properties": {"SourceCode":"RAWS","StationName":"Barnhart Texas","StationCode":"TBAR","StationID":"49706","CDBCode":"CDB_S_49706","StateName":"Texas"},"geometry": { "type": "Point","coordinates": [-101.157784,30.98556]}},{"type": "Feature", "id":57, "properties": {"SourceCode":"RAWS","StationName":"Baudette Minnesota","StationCode":"MBAU","StationID":"49713","CDBCode":"CDB_S_49713","StateName":"Minnesota"},"geometry": { "type": "Point","coordinates": [-94.61722,48.67028]}},{"type": "Feature", "id":58, "properties": {"SourceCode":"RAWS","StationName":"BC Baldy Montana","StationCode":"MBCB","StationID":"49715","CDBCode":"CDB_S_49715","StateName":"Montana"},"geometry": { "type": "Point","coordinates": [-115.583328,48.63333]}},{"type": "Feature", "id":59, "properties": {"SourceCode":"RAWS","StationName":"Bemidji Minnesota","StationCode":"MBEM","StationID":"49738","CDBCode":"CDB_S_49738","StateName":"Minnesota"},"geometry": { "type": "Point","coordinates": [-94.92806,47.50333]}},{"type": "Feature", "id":60, "properties": {"SourceCode":"RAWS","StationName":"Drowning Creek North Carolina","StationCode":"NDRO","StationID":"50108","CDBCode":"CDB_S_50108","StateName":"North Carolina"},"geometry": { "type": "Point","coordinates": [-79.505,35.03056]}},{"type": "Feature", "id":61, "properties": {"SourceCode":"RAWS","StationName":"Dry Park Arizona","StationCode":"ADRY","StationID":"50115","CDBCode":"CDB_S_50115","StateName":"Arizona"},"geometry": { "type": "Point","coordinates": [-112.24,36.45]}},{"type": "Feature", "id":62, "properties": {"SourceCode":"RAWS","StationName":"Estes Park Colorado","StationCode":"CEST","StationID":"50163","CDBCode":"CDB_S_50163","StateName":"Colorado"},"geometry": { "type": "Point","coordinates": [-105.55,40.36667]}},{"type": "Feature", "id":63, "properties": {"SourceCode":"RAWS","StationName":"Lassen Lodge California","StationCode":"CLAS","StationID":"50517","CDBCode":"CDB_S_50517","StateName":"California"},"geometry": { "type": "Point","coordinates": [-121.713608,40.34417]}},{"type": "Feature", "id":64, "properties": {"SourceCode":"RAWS","StationName":"Lindbergh Hill Arizona","StationCode":"ALBE","StationID":"50540","CDBCode":"CDB_S_50540","StateName":"Arizona"},"geometry": { "type": "Point","coordinates": [-112.079437,36.28583]}},{"type": "Feature", "id":65, "properties": {"SourceCode":"RAWS","StationName":"Little Creek Idaho","StationCode":"ILCR","StationID":"50549","CDBCode":"CDB_S_50549","StateName":"Idaho"},"geometry": { "type": "Point","coordinates": [-114.9,44.5]}},{"type": "Feature", "id":66, "properties": {"SourceCode":"RAWS","StationName":"Lost Park Colorado","StationCode":"CLPK","StationID":"50583","CDBCode":"CDB_S_50583","StateName":"Colorado"},"geometry": { "type": "Point","coordinates": [-105.542778,38.30694]}},{"type": "Feature", "id":67, "properties": {"SourceCode":"RAWS","StationName":"Rice Lake Minnesota","StationCode":"MRIC","StationID":"50933","CDBCode":"CDB_S_50933","StateName":"Minnesota"},"geometry": { "type": "Point","coordinates": [-93.2875,46.53722]}},{"type": "Feature", "id":68, "properties": {"SourceCode":"RAWS","StationName":"Rock Lake Idaho","StationCode":"IROC","StationID":"50949","CDBCode":"CDB_S_50949","StateName":"Idaho"},"geometry": { "type": "Point","coordinates": [-114.063057,42.97167]}},{"type": "Feature", "id":69, "properties": {"SourceCode":"RAWS","StationName":"Round Prairie Texas","StationCode":"TROU","StationID":"50965","CDBCode":"CDB_S_50965","StateName":"Texas"},"geometry": { "type": "Point","coordinates": [-96.36556,31.29556]}},{"type": "Feature", "id":70, "properties": {"SourceCode":"RAWS","StationName":"Ruby Lake NWR Nevada","StationCode":"NRUB","StationID":"50967","CDBCode":"CDB_S_50967","StateName":"Nevada"},"geometry": { "type": "Point","coordinates": [-115.485558,40.17306]}},{"type": "Feature", "id":71, "properties": {"SourceCode":"RAWS","StationName":"Salcha Alaska","StationCode":"ASLC","StationID":"50985","CDBCode":"CDB_S_50985","StateName":"Alaska"},"geometry": { "type": "Point","coordinates": [-146.14,64.59]}},{"type": "Feature", "id":72, "properties": {"SourceCode":"RAWS","StationName":"Sandhill Crane Mississippi","StationCode":"MSAN","StationID":"51001","CDBCode":"CDB_S_51001","StateName":"Mississippi"},"geometry": { "type": "Point","coordinates": [-88.66167,30.45278]}},{"type": "Feature", "id":73, "properties": {"SourceCode":"RAWS","StationName":"Santa Fe Watershed New Mexico","StationCode":"XSFW","StationID":"51008","CDBCode":"CDB_S_51008","StateName":"New Mexico"},"geometry": { "type": "Point","coordinates": [-105.860283,35.68694]}},{"type": "Feature", "id":74, "properties": {"SourceCode":"RAWS","StationName":"Black Cape Alaska","StationCode":"ABCA","StationID":"51353","CDBCode":"CDB_S_51353","StateName":"Alaska"},"geometry": { "type": "Point","coordinates": [-152.886383,58.40667]}},{"type": "Feature", "id":75, "properties": {"SourceCode":"RAWS","StationName":"Blair Lakes Alaska","StationCode":"ABLL","StationID":"51360","CDBCode":"CDB_S_51360","StateName":"Alaska"},"geometry": { "type": "Point","coordinates": [-147.695282,64.38583]}},{"type": "Feature", "id":76, "properties": {"SourceCode":"RAWS","StationName":"Chief Cove Alaska","StationCode":"ACHF","StationID":"51367","CDBCode":"CDB_S_51367","StateName":"Alaska"},"geometry": { "type": "Point","coordinates": [-153.9325,57.72944]}},{"type": "Feature", "id":77, "properties": {"SourceCode":"RAWS","StationName":"Cibecue Ridge Arizona","StationCode":"ACIB","StationID":"51369","CDBCode":"CDB_S_51369","StateName":"Arizona"},"geometry": { "type": "Point","coordinates": [-110.368332,34.06833]}},{"type": "Feature", "id":78, "properties": {"SourceCode":"RAWS","StationName":"Dos Cabezas Arizona","StationCode":"ADOS","StationID":"51385","CDBCode":"CDB_S_51385","StateName":"Arizona"},"geometry": { "type": "Point","coordinates": [-109.569168,32.18833]}},{"type": "Feature", "id":79, "properties": {"SourceCode":"RAWS","StationName":"Gates Glacier Alaska","StationCode":"AGAT","StationID":"51392","CDBCode":"CDB_S_51392","StateName":"Alaska"},"geometry": { "type": "Point","coordinates": [-143.013062,61.60278]}},{"type": "Feature", "id":80, "properties": {"SourceCode":"RAWS","StationName":"Liri Alabama","StationCode":"ALIR","StationID":"51408","CDBCode":"CDB_S_51408","StateName":"Alabama"},"geometry": { "type": "Point","coordinates": [-85.62917,34.49778]}},{"type": "Feature", "id":81, "properties": {"SourceCode":"RAWS","StationName":"Little Mountain - Vernal 10NW Utah","StationCode":"LITT","StationID":"51785","CDBCode":"CDB_S_51785","StateName":"Utah"},"geometry": { "type": "Point","coordinates": [-109.65,40.54]}},{"type": "Feature", "id":82, "properties": {"SourceCode":"RAWS","StationName":"South Bridger Montana","StationCode":"MSBR","StationID":"51846","CDBCode":"CDB_S_51846","StateName":"Montana"},"geometry": { "type": "Point","coordinates": [-108.791939,45.19944]}},{"type": "Feature", "id":83, "properties": {"SourceCode":"RAWS","StationName":"Ben Creek Alaska","StationCode":"ABEN","StationID":"49740","CDBCode":"CDB_S_49740","StateName":"Alaska"},"geometry": { "type": "Point","coordinates": [-143.066666,65.28333]}},{"type": "Feature", "id":84, "properties": {"SourceCode":"RAWS","StationName":"Berwind West Virginia","StationCode":"VBER","StationID":"49745","CDBCode":"CDB_S_49745","StateName":"West Virginia"},"geometry": { "type": "Point","coordinates": [-81.69778,37.25889]}},{"type": "Feature", "id":85, "properties": {"SourceCode":"RAWS","StationName":"Beverly Hills California","StationCode":"CBEV","StationID":"49747","CDBCode":"CDB_S_49747","StateName":"California"},"geometry": { "type": "Point","coordinates": [-118.412216,34.125]}},{"type": "Feature", "id":86, "properties": {"SourceCode":"RAWS","StationName":"Black Creek Mississippi","StationCode":"MBLC","StationID":"49772","CDBCode":"CDB_S_49772","StateName":"Mississippi"},"geometry": { "type": "Point","coordinates": [-89.03417,30.84889]}},{"type": "Feature", "id":87, "properties": {"SourceCode":"RAWS","StationName":"Black Rock Oregon","StationCode":"OBLA","StationID":"49779","CDBCode":"CDB_S_49779","StateName":"Oregon"},"geometry": { "type": "Point","coordinates": [-121.813332,43.52333]}},{"type": "Feature", "id":88, "properties": {"SourceCode":"RAWS","StationName":"Bluff City Arkansas","StationCode":"ABLU","StationID":"49797","CDBCode":"CDB_S_49797","StateName":"Arkansas"},"geometry": { "type": "Point","coordinates": [-93.1625,33.69222]}},{"type": "Feature", "id":89, "properties": {"SourceCode":"RAWS","StationName":"Brimstone Res. - Milford 20WSW Utah","StationCode":"BRIM","StationID":"49831","CDBCode":"CDB_S_49831","StateName":"Utah"},"geometry": { "type": "Point","coordinates": [-113.38472,38.30833]}},{"type": "Feature", "id":90, "properties": {"SourceCode":"RAWS","StationName":"Evangeline/Gardner Louisiana","StationCode":"LEVA","StationID":"50165","CDBCode":"CDB_S_50165","StateName":"Louisiana"},"geometry": { "type": "Point","coordinates": [-92.63139,31.185]}},{"type": "Feature", "id":91, "properties": {"SourceCode":"RAWS","StationName":"Five Mile - Duchesne 18SSE Utah","StationCode":"FIVE","StationID":"50197","CDBCode":"CDB_S_50197","StateName":"Utah"},"geometry": { "type": "Point","coordinates": [-110.265831,39.88111]}},{"type": "Feature", "id":92, "properties": {"SourceCode":"RAWS","StationName":"Four Springs Arizona","StationCode":"AFOU","StationID":"50222","CDBCode":"CDB_S_50222","StateName":"Arizona"},"geometry": { "type": "Point","coordinates": [-112.042221,36.79389]}},{"type": "Feature", "id":93, "properties": {"SourceCode":"RAWS","StationName":"Galena Montana","StationCode":"MGAL","StationID":"50231","CDBCode":"CDB_S_50231","StateName":"Montana"},"geometry": { "type": "Point","coordinates": [-112.229172,46.22222]}},{"type": "Feature", "id":94, "properties": {"SourceCode":"RAWS","StationName":"George Creek Alaska","StationCode":"AGEO","StationID":"50238","CDBCode":"CDB_S_50238","StateName":"Alaska"},"geometry": { "type": "Point","coordinates": [-144.350281,63.8375]}},{"type": "Feature", "id":95, "properties": {"SourceCode":"RAWS","StationName":"Goose Creek Idaho","StationCode":"IGOO","StationID":"50256","CDBCode":"CDB_S_50256","StateName":"Idaho"},"geometry": { "type": "Point","coordinates": [-113.895828,42.095]}},{"type": "Feature", "id":96, "properties": {"SourceCode":"RAWS","StationName":"Gordon California","StationCode":"CGOR","StationID":"50258","CDBCode":"CDB_S_50258","StateName":"California"},"geometry": { "type": "Point","coordinates": [-120.896111,40.75861]}},{"type": "Feature", "id":97, "properties": {"SourceCode":"RAWS","StationName":"Lujan Colorado","StationCode":"CLUJ","StationID":"50590","CDBCode":"CDB_S_50590","StateName":"Colorado"},"geometry": { "type": "Point","coordinates": [-106.56778,38.25444]}},{"type": "Feature", "id":98, "properties": {"SourceCode":"RAWS","StationName":"Majuba Nevada","StationCode":"NMAJ","StationID":"50597","CDBCode":"CDB_S_50597","StateName":"Nevada"},"geometry": { "type": "Point","coordinates": [-118.519722,40.77278]}},{"type": "Feature", "id":99, "properties": {"SourceCode":"RAWS","StationName":"Malibu Hills California","StationCode":"CMAL","StationID":"50599","CDBCode":"CDB_S_50599","StateName":"California"},"geometry": { "type": "Point","coordinates": [-118.633331,34.05833]}},{"type": "Feature", "id":100, "properties": {"SourceCode":"RAWS","StationName":"Malpias Lava Flow New Mexico","StationCode":"XMAL","StationID":"50601","CDBCode":"CDB_S_50601","StateName":"New Mexico"},"geometry": { "type": "Point","coordinates": [-108.095833,34.9]}},{"type": "Feature", "id":101, "properties": {"SourceCode":"RAWS","StationName":"Matador W.M.A. Texas","StationCode":"TMAA","StationID":"50617","CDBCode":"CDB_S_50617","StateName":"Texas"},"geometry": { "type": "Point","coordinates": [-100.416672,34.13333]}},{"type": "Feature", "id":102, "properties": {"SourceCode":"RAWS","StationName":"Albino Canyon New Mexico","StationCode":"XALB","StationID":"49633","CDBCode":"CDB_S_49633","StateName":"New Mexico"},"geometry": { "type": "Point","coordinates": [-107.628326,36.97694]}},{"type": "Feature", "id":103, "properties": {"SourceCode":"RAWS","StationName":"Alder Point California","StationCode":"CAPT","StationID":"49635","CDBCode":"CDB_S_49635","StateName":"California"},"geometry": { "type": "Point","coordinates": [-123.590279,40.18667]}},{"type": "Feature", "id":104, "properties": {"SourceCode":"RAWS","StationName":"Armells Creek Montana","StationCode":"MARM","StationID":"49667","CDBCode":"CDB_S_49667","StateName":"Montana"},"geometry": { "type": "Point","coordinates": [-108.869438,47.58667]}},{"type": "Feature", "id":105, "properties": {"SourceCode":"RAWS","StationName":"Armuchee #1 Georgia","StationCode":"GARM","StationID":"49669","CDBCode":"CDB_S_49669","StateName":"Georgia"},"geometry": { "type": "Point","coordinates": [-85.17361,34.69528]}},{"type": "Feature", "id":106, "properties": {"SourceCode":"RAWS","StationName":"Ava Missouri","StationCode":"MAVA","StationID":"49685","CDBCode":"CDB_S_49685","StateName":"Missouri"},"geometry": { "type": "Point","coordinates": [-92.65,36.94306]}},{"type": "Feature", "id":107, "properties": {"SourceCode":"RAWS","StationName":"Bechler Wyoming","StationCode":"WBEC","StationID":"49733","CDBCode":"CDB_S_49733","StateName":"Wyoming"},"geometry": { "type": "Point","coordinates": [-111.046669,44.15]}},{"type": "Feature", "id":108, "properties": {"SourceCode":"RAWS","StationName":"Beech Fork West Virginia","StationCode":"VBFK","StationID":"49735","CDBCode":"CDB_S_49735","StateName":"West Virginia"},"geometry": { "type": "Point","coordinates": [-82.41722,38.30056]}},{"type": "Feature", "id":109, "properties": {"SourceCode":"RAWS","StationName":"Dexter California","StationCode":"CDEX","StationID":"50084","CDBCode":"CDB_S_50084","StateName":"California"},"geometry": { "type": "Point","coordinates": [-118.771667,37.83889]}},{"type": "Feature", "id":110, "properties": {"SourceCode":"RAWS","StationName":"Douglas Ingram Ridge Washington","StationCode":"WDIR","StationID":"50101","CDBCode":"CDB_S_50101","StateName":"Washington"},"geometry": { "type": "Point","coordinates": [-120.103058,48.11556]}},{"type": "Feature", "id":111, "properties": {"SourceCode":"RAWS","StationName":"Douglas Washington","StationCode":"WDOU","StationID":"50102","CDBCode":"CDB_S_50102","StateName":"Washington"},"geometry": { "type": "Point","coordinates": [-119.898331,47.62]}},{"type": "Feature", "id":112, "properties": {"SourceCode":"RAWS","StationName":"Dunes Oregon","StationCode":"ODUN","StationID":"50120","CDBCode":"CDB_S_50120","StateName":"Oregon"},"geometry": { "type": "Point","coordinates": [-124.11972,43.95778]}},{"type": "Feature", "id":113, "properties": {"SourceCode":"RAWS","StationName":"Eel River California","StationCode":"CEEL","StationID":"50135","CDBCode":"CDB_S_50135","StateName":"California"},"geometry": { "type": "Point","coordinates": [-123.083328,39.83333]}},{"type": "Feature", "id":114, "properties": {"SourceCode":"RAWS","StationName":"Effie Minnesota","StationCode":"MEFF","StationID":"50137","CDBCode":"CDB_S_50137","StateName":"Minnesota"},"geometry": { "type": "Point","coordinates": [-93.64611,47.77944]}},{"type": "Feature", "id":115, "properties": {"SourceCode":"RAWS","StationName":"Ennis Montana","StationCode":"MENN","StationID":"50153","CDBCode":"CDB_S_50153","StateName":"Montana"},"geometry": { "type": "Point","coordinates": [-111.734444,45.35]}},{"type": "Feature", "id":116, "properties": {"SourceCode":"RAWS","StationName":"La Branche Michigan","StationCode":"MLAB","StationID":"50488","CDBCode":"CDB_S_50488","StateName":"Michigan"},"geometry": { "type": "Point","coordinates": [-87.48833,45.88556]}},{"type": "Feature", "id":117, "properties": {"SourceCode":"RAWS","StationName":"Lake George Colorado","StationCode":"CLGE","StationID":"50501","CDBCode":"CDB_S_50501","StateName":"Colorado"},"geometry": { "type": "Point","coordinates": [-105.355278,38.97722]}},{"type": "Feature", "id":118, "properties": {"SourceCode":"RAWS","StationName":"Lava Butte Oregon","StationCode":"OLAV","StationID":"50521","CDBCode":"CDB_S_50521","StateName":"Oregon"},"geometry": { "type": "Point","coordinates": [-121.33,43.93]}},{"type": "Feature", "id":119, "properties": {"SourceCode":"RAWS","StationName":"Lincoln California","StationCode":"CLIN","StationID":"50537","CDBCode":"CDB_S_50537","StateName":"California"},"geometry": { "type": "Point","coordinates": [-121.268333,38.8825]}},{"type": "Feature", "id":120, "properties": {"SourceCode":"RAWS","StationName":"Little Pend NWR Washington","StationCode":"WLTP","StationID":"50553","CDBCode":"CDB_S_50553","StateName":"Washington"},"geometry": { "type": "Point","coordinates": [-117.733063,48.46083]}},{"type": "Feature", "id":121, "properties": {"SourceCode":"RAWS","StationName":"Louisville Georgia","StationCode":"GLOU","StationID":"50585","CDBCode":"CDB_S_50585","StateName":"Georgia"},"geometry": { "type": "Point","coordinates": [-82.35278,32.975]}},{"type": "Feature", "id":122, "properties": {"SourceCode":"RAWS","StationName":"Lower Suwannee Florida","StationCode":"FLSU","StationID":"50587","CDBCode":"CDB_S_50587","StateName":"Florida"},"geometry": { "type": "Point","coordinates": [-83.03444,29.37306]}},{"type": "Feature", "id":123, "properties": {"SourceCode":"RAWS","StationName":"Red Deer Colorado","StationCode":"CRED","StationID":"50919","CDBCode":"CDB_S_50919","StateName":"Colorado"},"geometry": { "type": "Point","coordinates": [-106.211113,38.82722]}},{"type": "Feature", "id":124, "properties": {"SourceCode":"RAWS","StationName":"Red Lake Arizona","StationCode":"ARED","StationID":"50921","CDBCode":"CDB_S_50921","StateName":"Arizona"},"geometry": { "type": "Point","coordinates": [-110.789169,34.18139]}},{"type": "Feature", "id":125, "properties": {"SourceCode":"RAWS","StationName":"Rincon Arizona","StationCode":"ARIN","StationID":"50938","CDBCode":"CDB_S_50938","StateName":"Arizona"},"geometry": { "type": "Point","coordinates": [-110.548058,32.20556]}},{"type": "Feature", "id":126, "properties": {"SourceCode":"RAWS","StationName":"Rocky Mount North Carolina","StationCode":"NRKM","StationID":"50954","CDBCode":"CDB_S_50954","StateName":"North Carolina"},"geometry": { "type": "Point","coordinates": [-77.79861,35.97306]}},{"type": "Feature", "id":127, "properties": {"SourceCode":"RAWS","StationName":"Rome Wisconsin","StationCode":"WROM","StationID":"50956","CDBCode":"CDB_S_50956","StateName":"Wisconsin"},"geometry": { "type": "Point","coordinates": [-89.81,44.25667]}},{"type": "Feature", "id":128, "properties": {"SourceCode":"RAWS","StationName":"Rye Mountain Oregon","StationCode":"ORYE","StationID":"50973","CDBCode":"CDB_S_50973","StateName":"Oregon"},"geometry": { "type": "Point","coordinates": [-123.535561,45.21722]}},{"type": "Feature", "id":129, "properties": {"SourceCode":"RAWS","StationName":"Salmon Trout Alaska","StationCode":"ASAL","StationID":"50987","CDBCode":"CDB_S_50987","StateName":"Alaska"},"geometry": { "type": "Point","coordinates": [-141.62,66.8125]}},{"type": "Feature", "id":130, "properties": {"SourceCode":"RAWS","StationName":"Yellowstone Mountain Oregon","StationCode":"OYEL","StationID":"51338","CDBCode":"CDB_S_51338","StateName":"Oregon"},"geometry": { "type": "Point","coordinates": [-122.42778,44.59222]}},{"type": "Feature", "id":131, "properties": {"SourceCode":"RAWS","StationName":"Belmont Arizona","StationCode":"ABEL","StationID":"51357","CDBCode":"CDB_S_51357","StateName":"Arizona"},"geometry": { "type": "Point","coordinates": [-112.922783,33.67417]}},{"type": "Feature", "id":132, "properties": {"SourceCode":"RAWS","StationName":"Compton Arkansas","StationCode":"ACMP","StationID":"51370","CDBCode":"CDB_S_51370","StateName":"Arkansas"},"geometry": { "type": "Point","coordinates": [-93.35694,36.06778]}},{"type": "Feature", "id":133, "properties": {"SourceCode":"RAWS","StationName":"Canelo Arizona","StationCode":"ACNL","StationID":"51371","CDBCode":"CDB_S_51371","StateName":"Arizona"},"geometry": { "type": "Point","coordinates": [-110.519173,31.54972]}},{"type": "Feature", "id":134, "properties": {"SourceCode":"RAWS","StationName":"Coconini Micro #2 Arizona","StationCode":"ACO2","StationID":"51373","CDBCode":"CDB_S_51373","StateName":"Arizona"},"geometry": { "type": "Point","coordinates": [-111.903893,35.03194]}},{"type": "Feature", "id":135, "properties": {"SourceCode":"RAWS","StationName":"Eielson Visitor Center Alaska","StationCode":"AEIE","StationID":"51387","CDBCode":"CDB_S_51387","StateName":"Alaska"},"geometry": { "type": "Point","coordinates": [-150.309433,63.43139]}},{"type": "Feature", "id":136, "properties": {"SourceCode":"RAWS","StationName":"Jump-off Ridge Arizona","StationCode":"AJUM","StationID":"51406","CDBCode":"CDB_S_51406","StateName":"Arizona"},"geometry": { "type": "Point","coordinates": [-110.3425,34.22361]}},{"type": "Feature", "id":137, "properties": {"SourceCode":"RAWS","StationName":"Priest River Idaho","StationCode":"IPRI","StationID":"51757","CDBCode":"CDB_S_51757","StateName":"Idaho"},"geometry": { "type": "Point","coordinates": [-116.8,48.36667]}},{"type": "Feature", "id":138, "properties": {"SourceCode":"RAWS","StationName":"Willow Creek Idaho","StationCode":"IWIC","StationID":"51774","CDBCode":"CDB_S_51774","StateName":"Idaho"},"geometry": { "type": "Point","coordinates": [-115.72,43.41972]}},{"type": "Feature", "id":139, "properties": {"SourceCode":"RAWS","StationName":"Willow Ridge Idaho","StationCode":"IWIR","StationID":"51775","CDBCode":"CDB_S_51775","StateName":"Idaho"},"geometry": { "type": "Point","coordinates": [-116.47,44.13]}},{"type": "Feature", "id":140, "properties": {"SourceCode":"RAWS","StationName":"Harris Creek Montana","StationCode":"MHAR","StationID":"51824","CDBCode":"CDB_S_51824","StateName":"Montana"},"geometry": { "type": "Point","coordinates": [-105.613327,46.62278]}},{"type": "Feature", "id":141, "properties": {"SourceCode":"RAWS","StationName":"Pine Hill Montana","StationCode":"MPIN","StationID":"51841","CDBCode":"CDB_S_51841","StateName":"Montana"},"geometry": { "type": "Point","coordinates": [-104.57972,46.77694]}},{"type": "Feature", "id":142, "properties": {"SourceCode":"RAWS","StationName":"Bledsoe SF Tennessee","StationCode":"TBLE","StationID":"49785","CDBCode":"CDB_S_49785","StateName":"Tennessee"},"geometry": { "type": "Point","coordinates": [-85.27333,35.68194]}},{"type": "Feature", "id":143, "properties": {"SourceCode":"RAWS","StationName":"Board Hollow Oregon","StationCode":"OBOH","StationID":"49800","CDBCode":"CDB_S_49800","StateName":"Oregon"},"geometry": { "type": "Point","coordinates": [-120.683327,44.60556]}},{"type": "Feature", "id":144, "properties": {"SourceCode":"RAWS","StationName":"Bogard R.S. California","StationCode":"CBOG","StationID":"49801","CDBCode":"CDB_S_49801","StateName":"California"},"geometry": { "type": "Point","coordinates": [-121.083061,40.59806]}},{"type": "Feature", "id":145, "properties": {"SourceCode":"RAWS","StationName":"Bon Secour Alabama","StationCode":"ABNS","StationID":"49803","CDBCode":"CDB_S_49803","StateName":"Alabama"},"geometry": { "type": "Point","coordinates": [-87.8125,30.25278]}},{"type": "Feature", "id":146, "properties": {"SourceCode":"RAWS","StationName":"Bradshaw Creek Montana","StationCode":"MBRA","StationID":"49817","CDBCode":"CDB_S_49817","StateName":"Montana"},"geometry": { "type": "Point","coordinates": [-105.948334,45.05528]}},{"type": "Feature", "id":147, "properties": {"SourceCode":"RAWS","StationName":"Broadview Alaska","StationCode":"ABRO","StationID":"49833","CDBCode":"CDB_S_49833","StateName":"Alaska"},"geometry": { "type": "Point","coordinates": [-149.766663,60.48333]}},{"type": "Feature", "id":148, "properties": {"SourceCode":"RAWS","StationName":"Ezra Creek Idaho","StationCode":"IEZR","StationID":"50168","CDBCode":"CDB_S_50168","StateName":"Idaho"},"geometry": { "type": "Point","coordinates": [-114.02639,44.84639]}},{"type": "Feature", "id":149, "properties": {"SourceCode":"RAWS","StationName":"Flattop Mountain - Cleveland 15E Utah","StationCode":"FTOP","StationID":"50201","CDBCode":"CDB_S_50201","StateName":"Utah"},"geometry": { "type": "Point","coordinates": [-110.6,39.3375]}},{"type": "Feature", "id":150, "properties": {"SourceCode":"RAWS","StationName":"Foster Flat Oregon","StationCode":"OFOS","StationID":"50218","CDBCode":"CDB_S_50218","StateName":"Oregon"},"geometry": { "type": "Point","coordinates": [-119.246109,42.97361]}},{"type": "Feature", "id":151, "properties": {"SourceCode":"RAWS","StationName":"Gasquet California","StationCode":"CGAS","StationID":"50236","CDBCode":"CDB_S_50236","StateName":"California"},"geometry": { "type": "Point","coordinates": [-123.979172,41.84583]}},{"type": "Feature", "id":152, "properties": {"SourceCode":"RAWS","StationName":"Matagorda Island Texas","StationCode":"TMAT","StationID":"50618","CDBCode":"CDB_S_50618","StateName":"Texas"},"geometry": { "type": "Point","coordinates": [-96.80222,28.12278]}},{"type": "Feature", "id":153, "properties": {"SourceCode":"RAWS","StationName":"Mayhill New Mexico","StationCode":"XMAY","StationID":"50622","CDBCode":"CDB_S_50622","StateName":"New Mexico"},"geometry": { "type": "Point","coordinates": [-105.5,32.98333]}},{"type": "Feature", "id":154, "properties": {"SourceCode":"RAWS","StationName":"Alpine Arizona","StationCode":"AALP","StationID":"49643","CDBCode":"CDB_S_49643","StateName":"Arizona"},"geometry": { "type": "Point","coordinates": [-109.122223,33.84167]}},{"type": "Feature", "id":155, "properties": {"SourceCode":"RAWS","StationName":"Antietam NB Maryland","StationCode":"MANN","StationID":"49657","CDBCode":"CDB_S_49657","StateName":"Maryland"},"geometry": { "type": "Point","coordinates": [-77.75556,39.475]}},{"type": "Feature", "id":156, "properties": {"SourceCode":"RAWS","StationName":"Apostle Island Wisconsin","StationCode":"WAPO","StationID":"49660","CDBCode":"CDB_S_49660","StateName":"Wisconsin"},"geometry": { "type": "Point","coordinates": [-90.7525,46.92972]}},{"type": "Feature", "id":157, "properties": {"SourceCode":"RAWS","StationName":"Badger Spring - Ivins 14W Utah","StationCode":"BADG","StationID":"49691","CDBCode":"CDB_S_49691","StateName":"Utah"},"geometry": { "type": "Point","coordinates": [-113.949722,37.16972]}},{"type": "Feature", "id":158, "properties": {"SourceCode":"RAWS","StationName":"Bears Head Pennsylvania","StationCode":"PBEA","StationID":"49726","CDBCode":"CDB_S_49726","StateName":"Pennsylvania"},"geometry": { "type": "Point","coordinates": [-76.08056,40.85056]}},{"type": "Feature", "id":159, "properties": {"SourceCode":"RAWS","StationName":"Deep Creek Colorado","StationCode":"CDEE","StationID":"50059","CDBCode":"CDB_S_50059","StateName":"Colorado"},"geometry": { "type": "Point","coordinates": [-107.646942,39.77361]}},{"type": "Feature", "id":160, "properties": {"SourceCode":"RAWS","StationName":"Detroit Lakes Minnesota","StationCode":"MDET","StationID":"50076","CDBCode":"CDB_S_50076","StateName":"Minnesota"},"geometry": { "type": "Point","coordinates": [-95.84639,46.84889]}},{"type": "Feature", "id":161, "properties": {"SourceCode":"RAWS","StationName":"Devils Garden California","StationCode":"CDGR","StationID":"50078","CDBCode":"CDB_S_50078","StateName":"California"},"geometry": { "type": "Point","coordinates": [-120.671387,41.53]}},{"type": "Feature", "id":162, "properties": {"SourceCode":"RAWS","StationName":"Doe Lake Michigan","StationCode":"MDOE","StationID":"50095","CDBCode":"CDB_S_50095","StateName":"Michigan"},"geometry": { "type": "Point","coordinates": [-86.71417,46.25361]}},{"type": "Feature", "id":163, "properties": {"SourceCode":"RAWS","StationName":"Eagle Creek Oregon","StationCode":"OEAG","StationID":"50125","CDBCode":"CDB_S_50125","StateName":"Oregon"},"geometry": { "type": "Point","coordinates": [-122.331108,45.36861]}},{"type": "Feature", "id":164, "properties": {"SourceCode":"RAWS","StationName":"Eagle Peak California","StationCode":"CEAG","StationID":"50127","CDBCode":"CDB_S_50127","StateName":"California"},"geometry": { "type": "Point","coordinates": [-122.656937,39.92778]}},{"type": "Feature", "id":165, "properties": {"SourceCode":"RAWS","StationName":"Ladder Butte California","StationCode":"CLDR","StationID":"50493","CDBCode":"CDB_S_50493","StateName":"California"},"geometry": { "type": "Point","coordinates": [-121.296669,40.80722]}},{"type": "Feature", "id":166, "properties": {"SourceCode":"RAWS","StationName":"Ladysmith Wisconsin","StationCode":"WLAD","StationID":"50495","CDBCode":"CDB_S_50495","StateName":"Wisconsin"},"geometry": { "type": "Point","coordinates": [-91.11667,45.43333]}},{"type": "Feature", "id":167, "properties": {"SourceCode":"RAWS","StationName":"Leecher Washington","StationCode":"WLEE","StationID":"50526","CDBCode":"CDB_S_50526","StateName":"Washington"},"geometry": { "type": "Point","coordinates": [-120.001938,48.25056]}},{"type": "Feature", "id":168, "properties": {"SourceCode":"RAWS","StationName":"Lenoir City Tennessee","StationCode":"TWES","StationID":"50528","CDBCode":"CDB_S_50528","StateName":"Tennessee"},"geometry": { "type": "Point","coordinates": [-84.33083,35.84]}},{"type": "Feature", "id":169, "properties": {"SourceCode":"RAWS","StationName":"Leota Michigan","StationCode":"MLEO","StationID":"50530","CDBCode":"CDB_S_50530","StateName":"Michigan"},"geometry": { "type": "Point","coordinates": [-84.91833,44.11861]}},{"type": "Feature", "id":170, "properties": {"SourceCode":"RAWS","StationName":"Linn-San Manuel Texas","StationCode":"TLIN","StationID":"50543","CDBCode":"CDB_S_50543","StateName":"Texas"},"geometry": { "type": "Point","coordinates": [-98.08583,26.535]}},{"type": "Feature", "id":171, "properties": {"SourceCode":"RAWS","StationName":"Los Prietos California","StationCode":"CLOP","StationID":"50577","CDBCode":"CDB_S_50577","StateName":"California"},"geometry": { "type": "Point","coordinates": [-119.783333,34.53583]}},{"type": "Feature", "id":172, "properties": {"SourceCode":"RAWS","StationName":"Reader Ranch California","StationCode":"CRDR","StationID":"50912","CDBCode":"CDB_S_50912","StateName":"California"},"geometry": { "type": "Point","coordinates": [-121.117218,39.30361]}},{"type": "Feature", "id":173, "properties": {"SourceCode":"RAWS","StationName":"Red Bull (BAER #10) Utah","StationCode":"UBRB","StationID":"50914","CDBCode":"CDB_S_50914","StateName":"Utah"},"geometry": { "type": "Point","coordinates": [-111.366386,40.02889]}},{"type": "Feature", "id":174, "properties": {"SourceCode":"RAWS","StationName":"Rendezvous Mtn North Carolina","StationCode":"NREN","StationID":"50931","CDBCode":"CDB_S_50931","StateName":"North Carolina"},"geometry": { "type": "Point","coordinates": [-81.2975,36.2275]}},{"type": "Feature", "id":175, "properties": {"SourceCode":"RAWS","StationName":"Round Mountain","StationCode":"CROU","StationID":"50963","CDBCode":"CDB_S_50963","StateName":"California"},"geometry": { "type": "Point","coordinates": [-121.46389,41.42722]}},{"type": "Feature", "id":176, "properties": {"SourceCode":"RAWS","StationName":"San Rafael Hills California","StationCode":"CSRH","StationID":"50996","CDBCode":"CDB_S_50996","StateName":"California"},"geometry": { "type": "Point","coordinates": [-118.2125,34.19417]}},{"type": "Feature", "id":177, "properties": {"SourceCode":"RAWS","StationName":"Sanborn Park Colorado","StationCode":"CSAN","StationID":"50998","CDBCode":"CDB_S_50998","StateName":"Colorado"},"geometry": { "type": "Point","coordinates": [-108.216667,38.19167]}},{"type": "Feature", "id":178, "properties": {"SourceCode":"RAWS","StationName":"Sara New York","StationCode":"NSAR","StationID":"51014","CDBCode":"CDB_S_51014","StateName":"New York"},"geometry": { "type": "Point","coordinates": [-73.65111,43.00778]}},{"type": "Feature", "id":179, "properties": {"SourceCode":"RAWS","StationName":"Zion Canyon Utah","StationCode":"ZIOC","StationID":"51348","CDBCode":"CDB_S_51348","StateName":"Utah"},"geometry": { "type": "Point","coordinates": [-112.977783,37.20472]}},{"type": "Feature", "id":180, "properties": {"SourceCode":"RAWS","StationName":"Cape Kiavak Alaska","StationCode":"ACAK","StationID":"51362","CDBCode":"CDB_S_51362","StateName":"Alaska"},"geometry": { "type": "Point","coordinates": [-153.541672,56.99917]}},{"type": "Feature", "id":181, "properties": {"SourceCode":"RAWS","StationName":"Chuck Box Arizona","StationCode":"ACBX","StationID":"51364","CDBCode":"CDB_S_51364","StateName":"Arizona"},"geometry": { "type": "Point","coordinates": [-110.6725,34.24972]}},{"type": "Feature", "id":182, "properties": {"SourceCode":"RAWS","StationName":"Harding Icefield Alaska","StationCode":"AHAR","StationID":"51397","CDBCode":"CDB_S_51397","StateName":"Alaska"},"geometry": { "type": "Point","coordinates": [-149.798615,60.14889]}},{"type": "Feature", "id":183, "properties": {"SourceCode":"RAWS","StationName":"Mohave Mountain Arizona","StationCode":"AMOH","StationID":"51412","CDBCode":"CDB_S_51412","StateName":"Arizona"},"geometry": { "type": "Point","coordinates": [-114.193893,34.54806]}},{"type": "Feature", "id":184, "properties": {"SourceCode":"RAWS","StationName":"Merrill Pass Alaska","StationCode":"AMPA","StationID":"51414","CDBCode":"CDB_S_51414","StateName":"Alaska"},"geometry": { "type": "Point","coordinates": [-151.483337,59.63944]}},{"type": "Feature", "id":185, "properties": {"SourceCode":"RAWS","StationName":"Rainbow Arizona","StationCode":"ARAI","StationID":"51429","CDBCode":"CDB_S_51429","StateName":"Arizona"},"geometry": { "type": "Point","coordinates": [-110.119171,34.19972]}},{"type": "Feature", "id":186, "properties": {"SourceCode":"RAWS","StationName":"Loess Hills Hitchcock Iowa","StationCode":"ILHH","StationID":"51747","CDBCode":"CDB_S_51747","StateName":"Iowa"},"geometry": { "type": "Point","coordinates": [-95.85361,41.42167]}},{"type": "Feature", "id":187, "properties": {"SourceCode":"RAWS","StationName":"Maud Mountain Idaho","StationCode":"IMAU","StationID":"51749","CDBCode":"CDB_S_51749","StateName":"Idaho"},"geometry": { "type": "Point","coordinates": [-112.580559,44.21667]}},{"type": "Feature", "id":188, "properties": {"SourceCode":"RAWS","StationName":"Mink Creek Idaho","StationCode":"IMNK","StationID":"51750","CDBCode":"CDB_S_51750","StateName":"Idaho"},"geometry": { "type": "Point","coordinates": [-112.397217,42.79417]}},{"type": "Feature", "id":189, "properties": {"SourceCode":"RAWS","StationName":"Shine Idaho","StationCode":"ISHN","StationID":"51766","CDBCode":"CDB_S_51766","StateName":"Idaho"},"geometry": { "type": "Point","coordinates": [-116.6,46.96667]}},{"type": "Feature", "id":190, "properties": {"SourceCode":"RAWS","StationName":"Kings Point - Dutch John 16ESE Utah","StationCode":"KING","StationID":"51782","CDBCode":"CDB_S_51782","StateName":"Utah"},"geometry": { "type": "Point","coordinates": [-109.102219,40.86056]}},{"type": "Feature", "id":191, "properties": {"SourceCode":"RAWS","StationName":"Badger Pass Montana","StationCode":"MBDP","StationID":"51797","CDBCode":"CDB_S_51797","StateName":"Montana"},"geometry": { "type": "Point","coordinates": [-113,48.16667]}},{"type": "Feature", "id":192, "properties": {"SourceCode":"RAWS","StationName":"Beaverhead Deerlodge #2 Montana","StationCode":"MBEV","StationID":"51798","CDBCode":"CDB_S_51798","StateName":"Montana"},"geometry": { "type": "Point","coordinates": [-112.15,45.83278]}},{"type": "Feature", "id":193, "properties": {"SourceCode":"RAWS","StationName":"Big Snowy Montana","StationCode":"MBIS","StationID":"51800","CDBCode":"CDB_S_51800","StateName":"Montana"},"geometry": { "type": "Point","coordinates": [-109.6175,46.79111]}},{"type": "Feature", "id":194, "properties": {"SourceCode":"RAWS","StationName":"Delmoe Montana","StationCode":"MDEL","StationID":"51813","CDBCode":"CDB_S_51813","StateName":"Montana"},"geometry": { "type": "Point","coordinates": [-112.270561,45.94583]}},{"type": "Feature", "id":195, "properties": {"SourceCode":"RAWS","StationName":"Eight Mile Saddle Montana","StationCode":"MEIG","StationID":"51815","CDBCode":"CDB_S_51815","StateName":"Montana"},"geometry": { "type": "Point","coordinates": [-113.818062,46.65139]}},{"type": "Feature", "id":196, "properties": {"SourceCode":"RAWS","StationName":"South Kirby Coulee Montana","StationCode":"MSKC","StationID":"51850","CDBCode":"CDB_S_51850","StateName":"Montana"},"geometry": { "type": "Point","coordinates": [-107.793327,47.25611]}},{"type": "Feature", "id":197, "properties": {"SourceCode":"RAWS","StationName":"Big Sandy Kentucky","StationCode":"KBSN","StationID":"49761","CDBCode":"CDB_S_49761","StateName":"Kentucky"},"geometry": { "type": "Point","coordinates": [-82.63333,37.75]}},{"type": "Feature", "id":198, "properties": {"SourceCode":"RAWS","StationName":"Blue Ridge (KNF) California","StationCode":"CBLQ","StationID":"49791","CDBCode":"CDB_S_49791","StateName":"California"},"geometry": { "type": "Point","coordinates": [-123.1875,41.26944]}},{"type": "Feature", "id":199, "properties": {"SourceCode":"RAWS","StationName":"Bootleg Texas","StationCode":"TBOO","StationID":"49810","CDBCode":"CDB_S_49810","StateName":"Texas"},"geometry": { "type": "Point","coordinates": [-102.809441,34.82861]}},{"type": "Feature", "id":200, "properties": {"SourceCode":"RAWS","StationName":"Boscobel Wisconsin","StationCode":"WBOS","StationID":"49811","CDBCode":"CDB_S_49811","StateName":"Wisconsin"},"geometry": { "type": "Point","coordinates": [-90.68417,43.14917]}},{"type": "Feature", "id":201, "properties": {"SourceCode":"RAWS","StationName":"Felsenthal Arkansas","StationCode":"AFEL","StationID":"50178","CDBCode":"CDB_S_50178","StateName":"Arkansas"},"geometry": { "type": "Point","coordinates": [-92.19111,33.15556]}},{"type": "Feature", "id":202, "properties": {"SourceCode":"RAWS","StationName":"Fort Duchesne Utah","StationCode":"UINT","StationID":"50211","CDBCode":"CDB_S_50211","StateName":"Utah"},"geometry": { "type": "Point","coordinates": [-109.861671,40.28472]}},{"type": "Feature", "id":203, "properties": {"SourceCode":"RAWS","StationName":"Friend Mountain California","StationCode":"CFRI","StationID":"50228","CDBCode":"CDB_S_50228","StateName":"California"},"geometry": { "type": "Point","coordinates": [-123.341667,40.505]}},{"type": "Feature", "id":204, "properties": {"SourceCode":"RAWS","StationName":"Gleason Montana","StationCode":"MGLE","StationID":"50246","CDBCode":"CDB_S_50246","StateName":"Montana"},"geometry": { "type": "Point","coordinates": [-112.66806,47.86778]}},{"type": "Feature", "id":205, "properties": {"SourceCode":"RAWS","StationName":"Markleeville California","StationCode":"CMRK","StationID":"50611","CDBCode":"CDB_S_50611","StateName":"California"},"geometry": { "type": "Point","coordinates": [-119.76667,38.68333]}},{"type": "Feature", "id":206, "properties": {"SourceCode":"RAWS","StationName":"Fort Valley Virginia","StationCode":"VFVA","StationID":"50216","CDBCode":"CDB_S_50216","StateName":"Virginia"},"geometry": { "type": "Point","coordinates": [-78.4,38.83333]}},{"type": "Feature", "id":207, "properties": {"SourceCode":"RAWS","StationName":"Four Mile Montana","StationCode":"MFOU","StationID":"50221","CDBCode":"CDB_S_50221","StateName":"Montana"},"geometry": { "type": "Point","coordinates": [-110.216667,45.33333]}},{"type": "Feature", "id":208, "properties": {"SourceCode":"RAWS","StationName":"Gila Center New Mexico","StationCode":"XGIL","StationID":"50241","CDBCode":"CDB_S_50241","StateName":"New Mexico"},"geometry": { "type": "Point","coordinates": [-108.24,33.22333]}},{"type": "Feature", "id":209, "properties": {"SourceCode":"RAWS","StationName":"Grandfather North Carolina","StationCode":"NGRF","StationID":"50266","CDBCode":"CDB_S_50266","StateName":"North Carolina"},"geometry": { "type": "Point","coordinates": [-82.04389,35.75639]}},{"type": "Feature", "id":210, "properties": {"SourceCode":"RAWS","StationName":"Marblemount Washington","StationCode":"WMRB","StationID":"50607","CDBCode":"CDB_S_50607","StateName":"Washington"},"geometry": { "type": "Point","coordinates": [-121.446114,48.53944]}},{"type": "Feature", "id":211, "properties": {"SourceCode":"RAWS","StationName":"Mescal New Mexico","StationCode":"XMES","StationID":"50641","CDBCode":"CDB_S_50641","StateName":"New Mexico"},"geometry": { "type": "Point","coordinates": [-105.833328,33.16667]}},{"type": "Feature", "id":212, "properties": {"SourceCode":"RAWS","StationName":"Minam Lodge-Portable Oregon","StationCode":"OMIN","StationID":"50664","CDBCode":"CDB_S_50664","StateName":"Oregon"},"geometry": { "type": "Point","coordinates": [-117.632782,45.35389]}},{"type": "Feature", "id":213, "properties": {"SourceCode":"RAWS","StationName":"Minnesota Valley NWR Minnesota","StationCode":"MMNV","StationID":"50666","CDBCode":"CDB_S_50666","StateName":"Minnesota"},"geometry": { "type": "Point","coordinates": [-93.63583,44.71639]}},{"type": "Feature", "id":214, "properties": {"SourceCode":"RAWS","StationName":"Modoc NWR California","StationCode":"CMOD","StationID":"50675","CDBCode":"CDB_S_50675","StateName":"California"},"geometry": { "type": "Point","coordinates": [-120.353607,41.45889]}},{"type": "Feature", "id":215, "properties": {"SourceCode":"RAWS","StationName":"Moose Creek Idaho","StationCode":"IMOO","StationID":"50682","CDBCode":"CDB_S_50682","StateName":"Idaho"},"geometry": { "type": "Point","coordinates": [-114.55,46.06972]}},{"type": "Feature", "id":216, "properties": {"SourceCode":"RAWS","StationName":"Moosehorn Maine","StationCode":"MMOO","StationID":"50684","CDBCode":"CDB_S_50684","StateName":"Maine"},"geometry": { "type": "Point","coordinates": [-67.28194,45.11444]}},{"type": "Feature", "id":217, "properties": {"SourceCode":"RAWS","StationName":"Saugus California","StationCode":"CSAU","StationID":"51016","CDBCode":"CDB_S_51016","StateName":"California"},"geometry": { "type": "Point","coordinates": [-118.525,34.425]}},{"type": "Feature", "id":218, "properties": {"SourceCode":"RAWS","StationName":"School House Park Wyoming","StationCode":"WSCH","StationID":"51025","CDBCode":"CDB_S_51025","StateName":"Wyoming"},"geometry": { "type": "Point","coordinates": [-106.981941,44.30639]}},{"type": "Feature", "id":219, "properties": {"SourceCode":"RAWS","StationName":"Secret Town California","StationCode":"CSEC","StationID":"51032","CDBCode":"CDB_S_51032","StateName":"California"},"geometry": { "type": "Point","coordinates": [-120.88472,39.18361]}},{"type": "Feature", "id":220, "properties": {"SourceCode":"RAWS","StationName":"Smith Rapids Wisconsin","StationCode":"WSMI","StationID":"51077","CDBCode":"CDB_S_51077","StateName":"Wisconsin"},"geometry": { "type": "Point","coordinates": [-90.18083,45.93222]}},{"type": "Feature", "id":221, "properties": {"SourceCode":"RAWS","StationName":"Snow Springs Creek Wyoming","StationCode":"WSNO","StationID":"51082","CDBCode":"CDB_S_51082","StateName":"Wyoming"},"geometry": { "type": "Point","coordinates": [-109.03611,41.4175]}},{"type": "Feature", "id":222, "properties": {"SourceCode":"RAWS","StationName":"Soda Creek California","StationCode":"CSDC","StationID":"51084","CDBCode":"CDB_S_51084","StateName":"California"},"geometry": { "type": "Point","coordinates": [-122.977219,39.425]}},{"type": "Feature", "id":223, "properties": {"SourceCode":"RAWS","StationName":"Spring Gulch Nevada","StationCode":"NSPG","StationID":"51102","CDBCode":"CDB_S_51102","StateName":"Nevada"},"geometry": { "type": "Point","coordinates": [-114.202782,40.59306]}},{"type": "Feature", "id":224, "properties": {"SourceCode":"RAWS","StationName":"St. Francis Arkansas","StationCode":"ASTF","StationID":"51107","CDBCode":"CDB_S_51107","StateName":"Arkansas"},"geometry": { "type": "Point","coordinates": [-90.72194,34.75556]}},{"type": "Feature", "id":225, "properties": {"SourceCode":"RAWS","StationName":"Altamont California","StationCode":"CATT","StationID":"49646","CDBCode":"CDB_S_49646","StateName":"California"},"geometry": { "type": "Point","coordinates": [-121.609444,37.69306]}},{"type": "Feature", "id":226, "properties": {"SourceCode":"RAWS","StationName":"Angelus Hill California","StationCode":"CAHL","StationID":"49653","CDBCode":"CDB_S_49653","StateName":"California"},"geometry": { "type": "Point","coordinates": [-116.855,33.80806]}},{"type": "Feature", "id":227, "properties": {"SourceCode":"RAWS","StationName":"Atlanta Michigan","StationCode":"MATN","StationID":"49680","CDBCode":"CDB_S_49680","StateName":"Michigan"},"geometry": { "type": "Point","coordinates": [-84.16667,45.13333]}},{"type": "Feature", "id":228, "properties": {"SourceCode":"RAWS","StationName":"Badger Creek Oregon","StationCode":"OBAD","StationID":"49689","CDBCode":"CDB_S_49689","StateName":"Oregon"},"geometry": { "type": "Point","coordinates": [-120.4,44.03]}},{"type": "Feature", "id":229, "properties": {"SourceCode":"RAWS","StationName":"Baker Park South Dakota","StationCode":"SBAK","StationID":"49696","CDBCode":"CDB_S_49696","StateName":"South Dakota"},"geometry": { "type": "Point","coordinates": [-103.425,43.97917]}},{"type": "Feature", "id":230, "properties": {"SourceCode":"RAWS","StationName":"Bear Lodge Wyoming","StationCode":"WBEA","StationID":"49721","CDBCode":"CDB_S_49721","StateName":"Wyoming"},"geometry": { "type": "Point","coordinates": [-104.4275,44.59722]}},{"type": "Feature", "id":231, "properties": {"SourceCode":"RAWS","StationName":"Belleayre Mt. New York","StationCode":"YBEL","StationID":"49737","CDBCode":"CDB_S_49737","StateName":"New York"},"geometry": { "type": "Point","coordinates": [-74.49444,42.14389]}},{"type": "Feature", "id":232, "properties": {"SourceCode":"RAWS","StationName":"Desert NWR Nevada","StationCode":"NDNW","StationID":"50073","CDBCode":"CDB_S_50073","StateName":"Nevada"},"geometry": { "type": "Point","coordinates": [-115.14389,36.57917]}},{"type": "Feature", "id":233, "properties": {"SourceCode":"RAWS","StationName":"Ding Darling NWR Georgia","StationCode":"GDIN","StationID":"50089","CDBCode":"CDB_S_50089","StateName":"Georgia"},"geometry": { "type": "Point","coordinates": [-82.09778,26.43917]}},{"type": "Feature", "id":234, "properties": {"SourceCode":"RAWS","StationName":"Donnelly Alaska","StationCode":"ADON","StationID":"50098","CDBCode":"CDB_S_50098","StateName":"Alaska"},"geometry": { "type": "Point","coordinates": [-145.65,63.98333]}},{"type": "Feature", "id":235, "properties": {"SourceCode":"RAWS","StationName":"Doyle California","StationCode":"CDOY","StationID":"50105","CDBCode":"CDB_S_50105","StateName":"California"},"geometry": { "type": "Point","coordinates": [-120.10556,40.02222]}},{"type": "Feature", "id":236, "properties": {"SourceCode":"RAWS","StationName":"Echeta Wyoming","StationCode":"WECH","StationID":"50132","CDBCode":"CDB_S_50132","StateName":"Wyoming"},"geometry": { "type": "Point","coordinates": [-105.846107,44.46667]}},{"type": "Feature", "id":237, "properties": {"SourceCode":"RAWS","StationName":"Kramer Washington","StationCode":"WKRA","StationID":"50484","CDBCode":"CDB_S_50484","StateName":"Washington"},"geometry": { "type": "Point","coordinates": [-119.523331,48.27333]}},{"type": "Feature", "id":238, "properties": {"SourceCode":"RAWS","StationName":"La Panza California","StationCode":"CLAP","StationID":"50491","CDBCode":"CDB_S_50491","StateName":"California"},"geometry": { "type": "Point","coordinates": [-120.1875,35.38111]}},{"type": "Feature", "id":239, "properties": {"SourceCode":"RAWS","StationName":"Lake Andes South Dakota","StationCode":"SLAN","StationID":"50500","CDBCode":"CDB_S_50500","StateName":"South Dakota"},"geometry": { "type": "Point","coordinates": [-98.75917,43.25861]}},{"type": "Feature", "id":240, "properties": {"SourceCode":"RAWS","StationName":"Little Valley Nevada","StationCode":"NLIT","StationID":"50557","CDBCode":"CDB_S_50557","StateName":"Nevada"},"geometry": { "type": "Point","coordinates": [-119.880829,39.24444]}},{"type": "Feature", "id":241, "properties": {"SourceCode":"RAWS","StationName":"Lost Lake Washington","StationCode":"WLOS","StationID":"50582","CDBCode":"CDB_S_50582","StateName":"Washington"},"geometry": { "type": "Point","coordinates": [-119.065826,48.87306]}},{"type": "Feature", "id":242, "properties": {"SourceCode":"RAWS","StationName":"Lostwood North Dakota","StationCode":"NLOS","StationID":"50584","CDBCode":"CDB_S_50584","StateName":"North Dakota"},"geometry": { "type": "Point","coordinates": [-102.4,48.63333]}},{"type": "Feature", "id":243, "properties": {"SourceCode":"RAWS","StationName":"Red Butte Oregon","StationCode":"ORED","StationID":"50916","CDBCode":"CDB_S_50916","StateName":"Oregon"},"geometry": { "type": "Point","coordinates": [-117.834717,43.53611]}},{"type": "Feature", "id":244, "properties": {"SourceCode":"RAWS","StationName":"Red Rock Nevada","StationCode":"NRER","StationID":"50925","CDBCode":"CDB_S_50925","StateName":"Nevada"},"geometry": { "type": "Point","coordinates": [-115.427223,36.13528]}},{"type": "Feature", "id":245, "properties": {"SourceCode":"RAWS","StationName":"Redding Airport California","StationCode":"CREA","StationID":"50927","CDBCode":"CDB_S_50927","StateName":"California"},"geometry": { "type": "Point","coordinates": [-122.290558,40.51583]}},{"type": "Feature", "id":246, "properties": {"SourceCode":"RAWS","StationName":"Rock Creek Oregon","StationCode":"OROC","StationID":"50948","CDBCode":"CDB_S_50948","StateName":"Oregon"},"geometry": { "type": "Point","coordinates": [-119.656387,42.5475]}},{"type": "Feature", "id":247, "properties": {"SourceCode":"RAWS","StationName":"Ronan Montana","StationCode":"MRON","StationID":"50957","CDBCode":"CDB_S_50957","StateName":"Montana"},"geometry": { "type": "Point","coordinates": [-114.084717,47.56722]}},{"type": "Feature", "id":248, "properties": {"SourceCode":"RAWS","StationName":"Rose Valley California","StationCode":"CROS","StationID":"50959","CDBCode":"CDB_S_50959","StateName":"California"},"geometry": { "type": "Point","coordinates": [-119.184174,34.54306]}},{"type": "Feature", "id":249, "properties": {"SourceCode":"RAWS","StationName":"Rucker Arizona","StationCode":"ARUC","StationID":"50968","CDBCode":"CDB_S_50968","StateName":"Arizona"},"geometry": { "type": "Point","coordinates": [-109.34861,31.76111]}},{"type": "Feature", "id":250, "properties": {"SourceCode":"RAWS","StationName":"Baragan Wash Arizona","StationCode":"ABAR","StationID":"51352","CDBCode":"CDB_S_51352","StateName":"Arizona"},"geometry": { "type": "Point","coordinates": [-113.44944,32.9675]}},{"type": "Feature", "id":251, "properties": {"SourceCode":"RAWS","StationName":"McArthur Pass Alaska","StationCode":"AMCA","StationID":"51409","CDBCode":"CDB_S_51409","StateName":"Alaska"},"geometry": { "type": "Point","coordinates": [-150.3336,59.47278]}},{"type": "Feature", "id":252, "properties": {"SourceCode":"RAWS","StationName":"Mescal Arizona","StationCode":"AMES","StationID":"51411","CDBCode":"CDB_S_51411","StateName":"Arizona"},"geometry": { "type": "Point","coordinates": [-110.676109,33.14139]}},{"type": "Feature", "id":253, "properties": {"SourceCode":"RAWS","StationName":"Starlight Idaho","StationCode":"ISTA","StationID":"51770","CDBCode":"CDB_S_51770","StateName":"Idaho"},"geometry": { "type": "Point","coordinates": [-112.688889,42.69306]}},{"type": "Feature", "id":254, "properties": {"SourceCode":"RAWS","StationName":"Teetertown New Jersey","StationCode":"JTEE","StationID":"51779","CDBCode":"CDB_S_51779","StateName":"New Jersey"},"geometry": { "type": "Point","coordinates": [-74.85861,40.74917]}},{"type": "Feature", "id":255, "properties": {"SourceCode":"RAWS","StationName":"FRWS-12 Louisiana","StationCode":"LK12","StationID":"51786","CDBCode":"CDB_S_51786","StateName":"Louisiana"},"geometry": { "type": "Point","coordinates": [-90.20194,30.78194]}},{"type": "Feature", "id":256, "properties": {"SourceCode":"RAWS","StationName":"Curry Coulee Montana","StationCode":"MCUR","StationID":"51811","CDBCode":"CDB_S_51811","StateName":"Montana"},"geometry": { "type": "Point","coordinates": [-107.73111,47.38722]}},{"type": "Feature", "id":257, "properties": {"SourceCode":"RAWS","StationName":"Gulfport AP (FRWS5) Mississippi","StationCode":"MGLP","StationID":"51820","CDBCode":"CDB_S_51820","StateName":"Mississippi"},"geometry": { "type": "Point","coordinates": [-89.08056,30.41194]}},{"type": "Feature", "id":258, "properties": {"SourceCode":"RAWS","StationName":"McCook Ridge","StationCode":"MCCO","StationID":"50624","CDBCode":"CDB_S_50624","StateName":"Utah"},"geometry": { "type": "Point","coordinates": [-109.265831,39.63389]}},{"type": "Feature", "id":259, "properties": {"SourceCode":"RAWS","StationName":"Midland Texas","StationCode":"TMID","StationID":"50651","CDBCode":"CDB_S_50651","StateName":"Texas"},"geometry": { "type": "Point","coordinates": [-102,32]}},{"type": "Feature", "id":260, "properties": {"SourceCode":"RAWS","StationName":"Minong Wisconsin","StationCode":"WMNN","StationID":"50667","CDBCode":"CDB_S_50667","StateName":"Wisconsin"},"geometry": { "type": "Point","coordinates": [-91.98083,46.13583]}},{"type": "Feature", "id":261, "properties": {"SourceCode":"RAWS","StationName":"Sedge Ridge Washington","StationCode":"WSED","StationID":"51033","CDBCode":"CDB_S_51033","StateName":"Washington"},"geometry": { "type": "Point","coordinates": [-121.013329,46.495]}},{"type": "Feature", "id":262, "properties": {"SourceCode":"RAWS","StationName":"Selawik Alaska","StationCode":"ASEL","StationID":"51035","CDBCode":"CDB_S_51035","StateName":"Alaska"},"geometry": { "type": "Point","coordinates": [-159.1125,66.60333]}},{"type": "Feature", "id":263, "properties": {"SourceCode":"RAWS","StationName":"Sevilleta New Mexico","StationCode":"XSEV","StationID":"51042","CDBCode":"CDB_S_51042","StateName":"New Mexico"},"geometry": { "type": "Point","coordinates": [-106.797783,34.37694]}},{"type": "Feature", "id":264, "properties": {"SourceCode":"RAWS","StationName":"Shadow Rim Arizona","StationCode":"ASHA","StationID":"51044","CDBCode":"CDB_S_51044","StateName":"Arizona"},"geometry": { "type": "Point","coordinates": [-111.283058,34.40583]}},{"type": "Feature", "id":265, "properties": {"SourceCode":"RAWS","StationName":"Signal Tree Oregon","StationCode":"OSIG","StationID":"51060","CDBCode":"CDB_S_51060","StateName":"Oregon"},"geometry": { "type": "Point","coordinates": [-123.780281,43.00194]}},{"type": "Feature", "id":266, "properties": {"SourceCode":"RAWS","StationName":"South Fork Oregon","StationCode":"OSFK","StationID":"51092","CDBCode":"CDB_S_51092","StateName":"Oregon"},"geometry": { "type": "Point","coordinates": [-123.476112,45.59056]}},{"type": "Feature", "id":267, "properties": {"SourceCode":"RAWS","StationName":"Southern Rough Texas","StationCode":"TSOU","StationID":"51094","CDBCode":"CDB_S_51094","StateName":"Texas"},"geometry": { "type": "Point","coordinates": [-94.34111,30.54028]}},{"type": "Feature", "id":268, "properties": {"SourceCode":"RAWS","StationName":"Arizona Strip Portable L2 Arizona","StationCode":"ASP2","StationID":"51444","CDBCode":"CDB_S_51444","StateName":"Arizona"},"geometry": { "type": "Point","coordinates": [-113.885277,36.98278]}},{"type": "Feature", "id":269, "properties": {"SourceCode":"RAWS","StationName":"Blue Max California","StationCode":"CBMX","StationID":"51485","CDBCode":"CDB_S_51485","StateName":"California"},"geometry": { "type": "Point","coordinates": [-117.971939,35.70972]}},{"type": "Feature", "id":270, "properties": {"SourceCode":"RAWS","StationName":"Burro Canyon (BAER) California","StationCode":"CBRR","StationID":"51492","CDBCode":"CDB_S_51492","StateName":"California"},"geometry": { "type": "Point","coordinates": [-117.838058,34.24556]}},{"type": "Feature", "id":271, "properties": {"SourceCode":"RAWS","StationName":"Colorado City Colorado","StationCode":"CCCI","StationID":"51501","CDBCode":"CDB_S_51501","StateName":"Colorado"},"geometry": { "type": "Point","coordinates": [-104.869171,37.94778]}},{"type": "Feature", "id":272, "properties": {"SourceCode":"RAWS","StationName":"Callahan 2 California","StationCode":"CCH2","StationID":"51503","CDBCode":"CDB_S_51503","StateName":"California"},"geometry": { "type": "Point","coordinates": [-122.82444,41.3]}},{"type": "Feature", "id":273, "properties": {"SourceCode":"RAWS","StationName":"Burma Spring Nevada","StationCode":"NBUR","StationID":"51871","CDBCode":"CDB_S_51871","StateName":"Nevada"},"geometry": { "type": "Point","coordinates": [-117.400284,41.21861]}},{"type": "Feature", "id":274, "properties": {"SourceCode":"RAWS","StationName":"Ely Portable #2 (Cedar Spring) Nevada","StationCode":"NE21","StationID":"51878","CDBCode":"CDB_S_51878","StateName":"Nevada"},"geometry": { "type": "Point","coordinates": [-115.135,39.45306]}},{"type": "Feature", "id":275, "properties": {"SourceCode":"RAWS","StationName":"Pahrump Nevada","StationCode":"NPAH","StationID":"51903","CDBCode":"CDB_S_51903","StateName":"Nevada"},"geometry": { "type": "Point","coordinates": [-116.101669,36.16639]}},{"type": "Feature", "id":276, "properties": {"SourceCode":"RAWS","StationName":"Big Butte Oregon","StationCode":"OBIG","StationID":"51935","CDBCode":"CDB_S_51935","StateName":"Oregon"},"geometry": { "type": "Point","coordinates": [-122.385,42.68889]}},{"type": "Feature", "id":277, "properties": {"SourceCode":"RAWS","StationName":"Ammo Dump California","StationCode":"CAMM","StationID":"49647","CDBCode":"CDB_S_49647","StateName":"California"},"geometry": { "type": "Point","coordinates": [-117.285561,33.38139]}},{"type": "Feature", "id":278, "properties": {"SourceCode":"RAWS","StationName":"Antelope Lake Nevada","StationCode":"NANT","StationID":"49654","CDBCode":"CDB_S_49654","StateName":"Nevada"},"geometry": { "type": "Point","coordinates": [-116.764442,41.68472]}},{"type": "Feature", "id":279, "properties": {"SourceCode":"RAWS","StationName":"Badger Peak Montana","StationCode":"MBAP","StationID":"49690","CDBCode":"CDB_S_49690","StateName":"Montana"},"geometry": { "type": "Point","coordinates": [-106.500832,45.64806]}},{"type": "Feature", "id":280, "properties": {"SourceCode":"RAWS","StationName":"Balcones Texas","StationCode":"TBEL","StationID":"49697","CDBCode":"CDB_S_49697","StateName":"Texas"},"geometry": { "type": "Point","coordinates": [-98.03889,30.56611]}},{"type": "Feature", "id":281, "properties": {"SourceCode":"RAWS","StationName":"Bear Flat California","StationCode":"CBRF","StationID":"49720","CDBCode":"CDB_S_49720","StateName":"California"},"geometry": { "type": "Point","coordinates": [-120.313332,41.295]}},{"type": "Feature", "id":282, "properties": {"SourceCode":"RAWS","StationName":"Descanso California","StationCode":"CDES","StationID":"50072","CDBCode":"CDB_S_50072","StateName":"California"},"geometry": { "type": "Point","coordinates": [-116.622223,32.85694]}},{"type": "Feature", "id":283, "properties": {"SourceCode":"RAWS","StationName":"Desert Springs Nevada","StationCode":"NDSS","StationID":"50074","CDBCode":"CDB_S_50074","StateName":"Nevada"},"geometry": { "type": "Point","coordinates": [-119.77,39.6725]}},{"type": "Feature", "id":284, "properties": {"SourceCode":"RAWS","StationName":"Diamond Rim","StationCode":"DIAM","StationID":"50088","CDBCode":"CDB_S_50088","StateName":"Utah"},"geometry": { "type": "Point","coordinates": [-109.242783,40.61722]}},{"type": "Feature", "id":285, "properties": {"SourceCode":"RAWS","StationName":"Double Dome (Class III-9C) California","StationCode":"CDBD","StationID":"50099","CDBCode":"CDB_S_50099","StateName":"California"},"geometry": { "type": "Point","coordinates": [-119.888893,38.33639]}},{"type": "Feature", "id":286, "properties": {"SourceCode":"RAWS","StationName":"Dowd Junction Colorado","StationCode":"CDOW","StationID":"50104","CDBCode":"CDB_S_50104","StateName":"Colorado"},"geometry": { "type": "Point","coordinates": [-106.451668,39.62694]}},{"type": "Feature", "id":287, "properties": {"SourceCode":"RAWS","StationName":"Eb Forsythe New Jersey","StationCode":"JEBF","StationID":"50131","CDBCode":"CDB_S_50131","StateName":"New Jersey"},"geometry": { "type": "Point","coordinates": [-74.5,39.5]}},{"type": "Feature", "id":288, "properties": {"SourceCode":"RAWS","StationName":"Eddy Tower Florida","StationCode":"FEDD","StationID":"50133","CDBCode":"CDB_S_50133","StateName":"Florida"},"geometry": { "type": "Point","coordinates": [-82.34833,30.54833]}},{"type": "Feature", "id":289, "properties": {"SourceCode":"RAWS","StationName":"La Honda California","StationCode":"CLAH","StationID":"50490","CDBCode":"CDB_S_50490","StateName":"California"},"geometry": { "type": "Point","coordinates": [-122.255,37.30528]}},{"type": "Feature", "id":290, "properties": {"SourceCode":"RAWS","StationName":"Lines Creek Idaho","StationCode":"ILIN","StationID":"50542","CDBCode":"CDB_S_50542","StateName":"Idaho"},"geometry": { "type": "Point","coordinates": [-116.227783,47.10833]}},{"type": "Feature", "id":291, "properties": {"SourceCode":"RAWS","StationName":"Littlefork Minnesota","StationCode":"MLTT","StationID":"50558","CDBCode":"CDB_S_50558","StateName":"Minnesota"},"geometry": { "type": "Point","coordinates": [-93.56417,48.38944]}},{"type": "Feature", "id":292, "properties": {"SourceCode":"RAWS","StationName":"Logan West Virginia","StationCode":"WLOG","StationID":"50567","CDBCode":"CDB_S_50567","StateName":"West Virginia"},"geometry": { "type": "Point","coordinates": [-81.91444,37.855]}},{"type": "Feature", "id":293, "properties": {"SourceCode":"RAWS","StationName":"Lost Horse California","StationCode":"CLHO","StationID":"50581","CDBCode":"CDB_S_50581","StateName":"California"},"geometry": { "type": "Point","coordinates": [-116.187782,34.01778]}},{"type": "Feature", "id":294, "properties": {"SourceCode":"RAWS","StationName":"Red Butte Nevada","StationCode":"NREB","StationID":"50915","CDBCode":"CDB_S_50915","StateName":"Nevada"},"geometry": { "type": "Point","coordinates": [-117.316673,39.98333]}},{"type": "Feature", "id":295, "properties": {"SourceCode":"RAWS","StationName":"Red Canyon South Dakota","StationCode":"SRED","StationID":"50917","CDBCode":"CDB_S_50917","StateName":"South Dakota"},"geometry": { "type": "Point","coordinates": [-103.758888,43.42583]}},{"type": "Feature", "id":296, "properties": {"SourceCode":"RAWS","StationName":"Red Rock Montana","StationCode":"MRED","StationID":"50924","CDBCode":"CDB_S_50924","StateName":"Montana"},"geometry": { "type": "Point","coordinates": [-111.833328,44.68333]}},{"type": "Feature", "id":297, "properties": {"SourceCode":"RAWS","StationName":"Red Spur Utah","StationCode":"URSP","StationID":"50926","CDBCode":"CDB_S_50926","StateName":"Utah"},"geometry": { "type": "Point","coordinates": [-111.41111,41.63167]}},{"type": "Feature", "id":298, "properties": {"SourceCode":"RAWS","StationName":"Rose Peak California","StationCode":"CRSP","StationID":"50958","CDBCode":"CDB_S_50958","StateName":"California"},"geometry": { "type": "Point","coordinates": [-121.735558,37.50194]}},{"type": "Feature", "id":299, "properties": {"SourceCode":"RAWS","StationName":"Sabine Louisiana","StationCode":"LSAB","StationID":"50974","CDBCode":"CDB_S_50974","StateName":"Louisiana"},"geometry": { "type": "Point","coordinates": [-93.40389,29.88806]}},{"type": "Feature", "id":300, "properties": {"SourceCode":"RAWS","StationName":"Zaleski Ohio","StationCode":"OZAL","StationID":"51344","CDBCode":"CDB_S_51344","StateName":"Ohio"},"geometry": { "type": "Point","coordinates": [-82.385,39.27528]}},{"type": "Feature", "id":301, "properties": {"SourceCode":"RAWS","StationName":"100 Mile Creek Alaska","StationCode":"A100","StationID":"51351","CDBCode":"CDB_S_51351","StateName":"Alaska"},"geometry": { "type": "Point","coordinates": [-146.306671,64.04]}},{"type": "Feature", "id":302, "properties": {"SourceCode":"RAWS","StationName":"Midnight Mountain Alaska","StationCode":"AMDN","StationID":"51410","CDBCode":"CDB_S_51410","StateName":"Alaska"},"geometry": { "type": "Point","coordinates": [-164.542786,65.54278]}},{"type": "Feature", "id":303, "properties": {"SourceCode":"RAWS","StationName":"Ruth Glacier Alaska","StationCode":"ARUT","StationID":"51433","CDBCode":"CDB_S_51433","StateName":"Alaska"},"geometry": { "type": "Point","coordinates": [-150.539719,62.70972]}},{"type": "Feature", "id":304, "properties": {"SourceCode":"RAWS","StationName":"Rudo Idaho","StationCode":"IRUD","StationID":"51760","CDBCode":"CDB_S_51760","StateName":"Idaho"},"geometry": { "type": "Point","coordinates": [-115.9925,46.50167]}},{"type": "Feature", "id":305, "properties": {"SourceCode":"RAWS","StationName":"Silverton Idaho","StationCode":"ISIL","StationID":"51769","CDBCode":"CDB_S_51769","StateName":"Idaho"},"geometry": { "type": "Point","coordinates": [-115.946114,47.50833]}},{"type": "Feature", "id":306, "properties": {"SourceCode":"RAWS","StationName":"Camp Keller Mississippi","StationCode":"MCPK","StationID":"51810","CDBCode":"CDB_S_51810","StateName":"Mississippi"},"geometry": { "type": "Point","coordinates": [-88.98194,30.52417]}},{"type": "Feature", "id":307, "properties": {"SourceCode":"RAWS","StationName":"Golf Montana","StationCode":"MGOL","StationID":"51821","CDBCode":"CDB_S_51821","StateName":"Montana"},"geometry": { "type": "Point","coordinates": [-112.091667,47.24167]}},{"type": "Feature", "id":308, "properties": {"SourceCode":"RAWS","StationName":"Blacktail Utah","StationCode":"BKTL","StationID":"49781","CDBCode":"CDB_S_49781","StateName":"Utah"},"geometry": { "type": "Point","coordinates": [-110.562218,40.26917]}},{"type": "Feature", "id":309, "properties": {"SourceCode":"RAWS","StationName":"Bluewater Ridge New Mexico","StationCode":"XBLR","StationID":"49795","CDBCode":"CDB_S_49795","StateName":"New Mexico"},"geometry": { "type": "Point","coordinates": [-108.163063,35.19417]}},{"type": "Feature", "id":310, "properties": {"SourceCode":"RAWS","StationName":"McKinley River Alaska","StationCode":"AMCK","StationID":"50629","CDBCode":"CDB_S_50629","StateName":"Alaska"},"geometry": { "type": "Point","coordinates": [-151.639725,63.64917]}},{"type": "Feature", "id":311, "properties": {"SourceCode":"RAWS","StationName":"Metoluis Arm Oregon","StationCode":"OMET","StationID":"50643","CDBCode":"CDB_S_50643","StateName":"Oregon"},"geometry": { "type": "Point","coordinates": [-121.614723,44.6275]}},{"type": "Feature", "id":312, "properties": {"SourceCode":"RAWS","StationName":"Miller Creek Texas","StationCode":"TMIL","StationID":"50660","CDBCode":"CDB_S_50660","StateName":"Texas"},"geometry": { "type": "Point","coordinates": [-99.40056,33.41361]}},{"type": "Feature", "id":313, "properties": {"SourceCode":"RAWS","StationName":"Montano New Mexico","StationCode":"XMON","StationID":"50678","CDBCode":"CDB_S_50678","StateName":"New Mexico"},"geometry": { "type": "Point","coordinates": [-106.680832,35.14583]}},{"type": "Feature", "id":314, "properties": {"SourceCode":"RAWS","StationName":"Mount Logan Arizona","StationCode":"AMTL","StationID":"50694","CDBCode":"CDB_S_50694","StateName":"Arizona"},"geometry": { "type": "Point","coordinates": [-113.198891,36.34722]}},{"type": "Feature", "id":315, "properties": {"SourceCode":"RAWS","StationName":"Scorpion California","StationCode":"CSCN","StationID":"51028","CDBCode":"CDB_S_51028","StateName":"California"},"geometry": { "type": "Point","coordinates": [-122.696671,41.11167]}},{"type": "Feature", "id":316, "properties": {"SourceCode":"RAWS","StationName":"Silver Creek Michigan","StationCode":"MSLV","StationID":"51062","CDBCode":"CDB_S_51062","StateName":"Michigan"},"geometry": { "type": "Point","coordinates": [-83.59972,44.37639]}},{"type": "Feature", "id":317, "properties": {"SourceCode":"RAWS","StationName":"Snake Den Rhode Island","StationCode":"RSNA","StationID":"51079","CDBCode":"CDB_S_51079","StateName":"Rhode Island"},"geometry": { "type": "Point","coordinates": [-71.53333,41.81667]}},{"type": "Feature", "id":318, "properties": {"SourceCode":"RAWS","StationName":"Spincich Lake Michigan","StationCode":"MSPI","StationID":"51097","CDBCode":"CDB_S_51097","StateName":"Michigan"},"geometry": { "type": "Point","coordinates": [-85.62722,46.45778]}},{"type": "Feature", "id":319, "properties": {"SourceCode":"RAWS","StationName":"St. Mary Montana","StationCode":"MSTM","StationID":"51111","CDBCode":"CDB_S_51111","StateName":"Montana"},"geometry": { "type": "Point","coordinates": [-113.430557,48.7375]}},{"type": "Feature", "id":320, "properties": {"SourceCode":"RAWS","StationName":"Stafford Kansas","StationCode":"KSTA","StationID":"51113","CDBCode":"CDB_S_51113","StateName":"Kansas"},"geometry": { "type": "Point","coordinates": [-98.5,38.16694]}},{"type": "Feature", "id":321, "properties": {"SourceCode":"RAWS","StationName":"Stafford-CUIS Georgia","StationCode":"GSTA","StationID":"51114","CDBCode":"CDB_S_51114","StateName":"Georgia"},"geometry": { "type": "Point","coordinates": [-81.42944,30.91722]}},{"type": "Feature", "id":322, "properties": {"SourceCode":"RAWS","StationName":"Stray Horse (2) Arizona","StationCode":"ASTZ","StationID":"51446","CDBCode":"CDB_S_51446","StateName":"Arizona"},"geometry": { "type": "Point","coordinates": [-109.317223,33.5525]}},{"type": "Feature", "id":323, "properties": {"SourceCode":"RAWS","StationName":"Beaver Dam Utah","StationCode":"BEAV","StationID":"51464","CDBCode":"CDB_S_51464","StateName":"Utah"},"geometry": { "type": "Point","coordinates": [-113.939171,37.18861]}},{"type": "Feature", "id":324, "properties": {"SourceCode":"RAWS","StationName":"Second Box Colorado","StationCode":"C2BX","StationID":"51465","CDBCode":"CDB_S_51465","StateName":"Colorado"},"geometry": { "type": "Point","coordinates": [-107.321388,37.35167]}},{"type": "Feature", "id":325, "properties": {"SourceCode":"RAWS","StationName":"Blue Ridge California","StationCode":"CBLR","StationID":"51479","CDBCode":"CDB_S_51479","StateName":"California"},"geometry": { "type": "Point","coordinates": [-123.14222,40.88917]}},{"type": "Feature", "id":326, "properties": {"SourceCode":"RAWS","StationName":"Boulevard California","StationCode":"CBLV","StationID":"51480","CDBCode":"CDB_S_51480","StateName":"California"},"geometry": { "type": "Point","coordinates": [-116.271667,32.66222]}},{"type": "Feature", "id":327, "properties": {"SourceCode":"RAWS","StationName":"Cahoon California","StationCode":"CCAH","StationID":"51499","CDBCode":"CDB_S_51499","StateName":"California"},"geometry": { "type": "Point","coordinates": [-121.510834,36.34694]}},{"type": "Feature", "id":328, "properties": {"SourceCode":"RAWS","StationName":"Alpine California","StationCode":"CALP","StationID":"49644","CDBCode":"CDB_S_49644","StateName":"California"},"geometry": { "type": "Point","coordinates": [-116.739166,32.83361]}},{"type": "Feature", "id":329, "properties": {"SourceCode":"RAWS","StationName":"Badoura Minnesota","StationCode":"MBDA","StationID":"49692","CDBCode":"CDB_S_49692","StateName":"Minnesota"},"geometry": { "type": "Point","coordinates": [-94.72583,46.86083]}},{"type": "Feature", "id":330, "properties": {"SourceCode":"RAWS","StationName":"Bailey Colorado","StationCode":"CBAI","StationID":"49693","CDBCode":"CDB_S_49693","StateName":"Colorado"},"geometry": { "type": "Point","coordinates": [-105.339439,39.37944]}},{"type": "Feature", "id":331, "properties": {"SourceCode":"RAWS","StationName":"Desoto Iowa","StationCode":"IDES","StationID":"50075","CDBCode":"CDB_S_50075","StateName":"Iowa"},"geometry": { "type": "Point","coordinates": [-96.08333,41.53333]}},{"type": "Feature", "id":332, "properties": {"SourceCode":"RAWS","StationName":"Dry Canyon Nevada","StationCode":"NDRY","StationID":"50110","CDBCode":"CDB_S_50110","StateName":"Nevada"},"geometry": { "type": "Point","coordinates": [-119.116669,41.49167]}},{"type": "Feature", "id":333, "properties": {"SourceCode":"RAWS","StationName":"Dry Creek Washington","StationCode":"WDRY","StationID":"50111","CDBCode":"CDB_S_50111","StateName":"Washington"},"geometry": { "type": "Point","coordinates": [-120.533333,47.73333]}},{"type": "Feature", "id":334, "properties": {"SourceCode":"RAWS","StationName":"Eagle Wyoming","StationCode":"WEAG","StationID":"50129","CDBCode":"CDB_S_50129","StateName":"Wyoming"},"geometry": { "type": "Point","coordinates": [-109.896393,44.48556]}},{"type": "Feature", "id":335, "properties": {"SourceCode":"RAWS","StationName":"Elizabeth City North Carolina","StationCode":"NELI","StationID":"50142","CDBCode":"CDB_S_50142","StateName":"North Carolina"},"geometry": { "type": "Point","coordinates": [-76.27806,36.34694]}},{"type": "Feature", "id":336, "properties": {"SourceCode":"RAWS","StationName":"Elk Creek Oregon","StationCode":"OECK","StationID":"50143","CDBCode":"CDB_S_50143","StateName":"Oregon"},"geometry": { "type": "Point","coordinates": [-117.971107,44.75778]}},{"type": "Feature", "id":337, "properties": {"SourceCode":"RAWS","StationName":"Elk Rock Washington","StationCode":"WELR","StationID":"50144","CDBCode":"CDB_S_50144","StateName":"Washington"},"geometry": { "type": "Point","coordinates": [-122.605827,46.35222]}},{"type": "Feature", "id":338, "properties": {"SourceCode":"RAWS","StationName":"Elkhorn Montana","StationCode":"MEKH","StationID":"50145","CDBCode":"CDB_S_50145","StateName":"Montana"},"geometry": { "type": "Point","coordinates": [-111.696671,46.31472]}},{"type": "Feature", "id":339, "properties": {"SourceCode":"RAWS","StationName":"Litchfield Minnesota","StationCode":"MLTC","StationID":"50544","CDBCode":"CDB_S_50544","StateName":"Minnesota"},"geometry": { "type": "Point","coordinates": [-94.53028,45.07194]}},{"type": "Feature", "id":340, "properties": {"SourceCode":"RAWS","StationName":"Little Anderson Idaho","StationCode":"ILIT","StationID":"50545","CDBCode":"CDB_S_50545","StateName":"Idaho"},"geometry": { "type": "Point","coordinates": [-115.880562,44.09111]}},{"type": "Feature", "id":341, "properties": {"SourceCode":"RAWS","StationName":"Los Vaqueros California","StationCode":"CLVA","StationID":"50578","CDBCode":"CDB_S_50578","StateName":"California"},"geometry": { "type": "Point","coordinates": [-121.70417,37.83194]}},{"type": "Feature", "id":342, "properties": {"SourceCode":"RAWS","StationName":"Lost Creek - Salina 12S Utah","StationCode":"LOST","StationID":"50579","CDBCode":"CDB_S_50579","StateName":"Utah"},"geometry": { "type": "Point","coordinates": [-111.8625,38.77083]}},{"type": "Feature", "id":343, "properties": {"SourceCode":"RAWS","StationName":"Lost Creek Alaska","StationCode":"ALOS","StationID":"50580","CDBCode":"CDB_S_50580","StateName":"Alaska"},"geometry": { "type": "Point","coordinates": [-147.97139,66.0425]}},{"type": "Feature", "id":344, "properties": {"SourceCode":"RAWS","StationName":"Rock Creek","StationCode":"CROC","StationID":"50947","CDBCode":"CDB_S_50947","StateName":"California"},"geometry": { "type": "Point","coordinates": [-118.667221,37.55139]}},{"type": "Feature", "id":345, "properties": {"SourceCode":"RAWS","StationName":"Zarembo Alaska","StationCode":"AZAR","StationID":"51345","CDBCode":"CDB_S_51345","StateName":"Alaska"},"geometry": { "type": "Point","coordinates": [-132.848618,56.3]}},{"type": "Feature", "id":346, "properties": {"SourceCode":"RAWS","StationName":"Zavalla Texas","StationCode":"TZAV","StationID":"51346","CDBCode":"CDB_S_51346","StateName":"Texas"},"geometry": { "type": "Point","coordinates": [-94.38389,31.17722]}},{"type": "Feature", "id":347, "properties": {"SourceCode":"RAWS","StationName":"Zim Oregon","StationCode":"OZIM","StationID":"51347","CDBCode":"CDB_S_51347","StateName":"Oregon"},"geometry": { "type": "Point","coordinates": [-122.390282,42.685]}},{"type": "Feature", "id":348, "properties": {"SourceCode":"RAWS","StationName":"Cottonwood Ridge Arizona","StationCode":"ACTT","StationID":"51380","CDBCode":"CDB_S_51380","StateName":"Arizona"},"geometry": { "type": "Point","coordinates": [-110.119171,34.19972]}},{"type": "Feature", "id":349, "properties": {"SourceCode":"RAWS","StationName":"Howard Canyon Arizona","StationCode":"AHCA","StationID":"51398","CDBCode":"CDB_S_51398","StateName":"Arizona"},"geometry": { "type": "Point","coordinates": [-109.57,32.195]}},{"type": "Feature", "id":350, "properties": {"SourceCode":"RAWS","StationName":"Hickerson Lake Alaska","StationCode":"AHIC","StationID":"51399","CDBCode":"CDB_S_51399","StateName":"Alaska"},"geometry": { "type": "Point","coordinates": [-152.8925,59.91472]}},{"type": "Feature", "id":351, "properties": {"SourceCode":"RAWS","StationName":"Rock Creek Lower Alaska","StationCode":"ARCL","StationID":"51430","CDBCode":"CDB_S_51430","StateName":"Alaska"},"geometry": { "type": "Point","coordinates": [-149.0089,63.735]}},{"type": "Feature", "id":352, "properties": {"SourceCode":"RAWS","StationName":"Renee Alaska","StationCode":"AREN","StationID":"51431","CDBCode":"CDB_S_51431","StateName":"Alaska"},"geometry": { "type": "Point","coordinates": [-146.618057,62.71]}},{"type": "Feature", "id":353, "properties": {"SourceCode":"RAWS","StationName":"Roosevelt Arizona","StationCode":"AROO","StationID":"51432","CDBCode":"CDB_S_51432","StateName":"Arizona"},"geometry": { "type": "Point","coordinates": [-111.133331,33.655]}},{"type": "Feature", "id":354, "properties": {"SourceCode":"RAWS","StationName":"Lucky Peak Idaho","StationCode":"ILUC","StationID":"51748","CDBCode":"CDB_S_51748","StateName":"Idaho"},"geometry": { "type": "Point","coordinates": [-115.9925,43.5875]}},{"type": "Feature", "id":355, "properties": {"SourceCode":"RAWS","StationName":"Woodbine New Jersey","StationCode":"JWOO","StationID":"51780","CDBCode":"CDB_S_51780","StateName":"New Jersey"},"geometry": { "type": "Point","coordinates": [-74.80389,39.23]}},{"type": "Feature", "id":356, "properties": {"SourceCode":"RAWS","StationName":"Cherry Tree Knob Kentucky","StationCode":"KCHE","StationID":"51781","CDBCode":"CDB_S_51781","StateName":"Kentucky"},"geometry": { "type": "Point","coordinates": [-83.57444,37.28]}},{"type": "Feature", "id":357, "properties": {"SourceCode":"RAWS","StationName":"Maca2 Kentucky","StationCode":"KMAC","StationID":"51783","CDBCode":"CDB_S_51783","StateName":"Kentucky"},"geometry": { "type": "Point","coordinates": [-86.14806,37.13139]}},{"type": "Feature", "id":358, "properties": {"SourceCode":"RAWS","StationName":"Lolo Portable (32335418) Montana","StationCode":"MLP1","StationID":"51832","CDBCode":"CDB_S_51832","StateName":"Montana"},"geometry": { "type": "Point","coordinates": [-114.23333,46.73333]}},{"type": "Feature", "id":359, "properties": {"SourceCode":"RAWS","StationName":"McFarland Hill Maine","StationCode":"MMCF","StationID":"51833","CDBCode":"CDB_S_51833","StateName":"Maine"},"geometry": { "type": "Point","coordinates": [-68.26083,44.37694]}},{"type": "Feature", "id":360, "properties": {"SourceCode":"RAWS","StationName":"Seth Montana","StationCode":"MSET","StationID":"51847","CDBCode":"CDB_S_51847","StateName":"Montana"},"geometry": { "type": "Point","coordinates": [-111.965828,46.60833]}},{"type": "Feature", "id":361, "properties": {"SourceCode":"RAWS","StationName":"Sheepherder Hill Montana","StationCode":"MSHH","StationID":"51848","CDBCode":"CDB_S_51848","StateName":"Montana"},"geometry": { "type": "Point","coordinates": [-114.478058,49.00083]}},{"type": "Feature", "id":362, "properties": {"SourceCode":"RAWS","StationName":"Melrose Range New Mexico","StationCode":"XMEL","StationID":"50635","CDBCode":"CDB_S_50635","StateName":"New Mexico"},"geometry": { "type": "Point","coordinates": [-103.8,34.3]}},{"type": "Feature", "id":363, "properties": {"SourceCode":"RAWS","StationName":"Meriwether Lewis Tennessee","StationCode":"TMER","StationID":"50637","CDBCode":"CDB_S_50637","StateName":"Tennessee"},"geometry": { "type": "Point","coordinates": [-87.45778,35.32083]}},{"type": "Feature", "id":364, "properties": {"SourceCode":"RAWS","StationName":"Midway Georgia","StationCode":"GMID","StationID":"50653","CDBCode":"CDB_S_50653","StateName":"Georgia"},"geometry": { "type": "Point","coordinates": [-81.43861,31.78417]}},{"type": "Feature", "id":365, "properties": {"SourceCode":"RAWS","StationName":"Mill Creek (ANF) California","StationCode":"CMIL","StationID":"50655","CDBCode":"CDB_S_50655","StateName":"California"},"geometry": { "type": "Point","coordinates": [-118.0825,34.39028]}},{"type": "Feature", "id":366, "properties": {"SourceCode":"RAWS","StationName":"Morey Creek Nevada","StationCode":"NMOR","StationID":"50687","CDBCode":"CDB_S_50687","StateName":"Nevada"},"geometry": { "type": "Point","coordinates": [-117.633331,41.45583]}},{"type": "Feature", "id":367, "properties": {"SourceCode":"RAWS","StationName":"Savriv South Carolina","StationCode":"SSV2","StationID":"51019","CDBCode":"CDB_S_51019","StateName":"South Carolina"},"geometry": { "type": "Point","coordinates": [-81.59056,33.21056]}},{"type": "Feature", "id":368, "properties": {"SourceCode":"RAWS","StationName":"Sawyers Bar California","StationCode":"CSAW","StationID":"51023","CDBCode":"CDB_S_51023","StateName":"California"},"geometry": { "type": "Point","coordinates": [-123.132217,41.30028]}},{"type": "Feature", "id":369, "properties": {"SourceCode":"RAWS","StationName":"Ship Mtn. California","StationCode":"CSHI","StationID":"51053","CDBCode":"CDB_S_51053","StateName":"California"},"geometry": { "type": "Point","coordinates": [-123.791672,41.73583]}},{"type": "Feature", "id":370, "properties": {"SourceCode":"RAWS","StationName":"Slate Creek Idaho","StationCode":"ISLA","StationID":"51070","CDBCode":"CDB_S_51070","StateName":"Idaho"},"geometry": { "type": "Point","coordinates": [-116.283333,45.63333]}},{"type": "Feature", "id":371, "properties": {"SourceCode":"RAWS","StationName":"Slaughter New Mexico","StationCode":"XSLA","StationID":"51072","CDBCode":"CDB_S_51072","StateName":"New Mexico"},"geometry": { "type": "Point","coordinates": [-108.433327,34.06667]}},{"type": "Feature", "id":372, "properties": {"SourceCode":"RAWS","StationName":"Squaw Lake California","StationCode":"CSQU","StationID":"51105","CDBCode":"CDB_S_51105","StateName":"California"},"geometry": { "type": "Point","coordinates": [-114.494438,32.90833]}},{"type": "Feature", "id":373, "properties": {"SourceCode":"RAWS","StationName":"Tokositna Alaska","StationCode":"ATKS","StationID":"51454","CDBCode":"CDB_S_51454","StateName":"Alaska"},"geometry": { "type": "Point","coordinates": [-150.813614,62.62389]}},{"type": "Feature", "id":374, "properties": {"SourceCode":"RAWS","StationName":"Totson Alaska","StationCode":"ATOT","StationID":"51455","CDBCode":"CDB_S_51455","StateName":"Alaska"},"geometry": { "type": "Point","coordinates": [-157.3,64.44667]}},{"type": "Feature", "id":375, "properties": {"SourceCode":"RAWS","StationName":"Boron California","StationCode":"CBOR","StationID":"51487","CDBCode":"CDB_S_51487","StateName":"California"},"geometry": { "type": "Point","coordinates": [-117.585,35.07667]}},{"type": "Feature", "id":376, "properties": {"SourceCode":"RAWS","StationName":"Bridgeport California","StationCode":"CBRD","StationID":"51490","CDBCode":"CDB_S_51490","StateName":"California"},"geometry": { "type": "Point","coordinates": [-119.289169,38.27194]}},{"type": "Feature", "id":377, "properties": {"SourceCode":"RAWS","StationName":"Challenge California","StationCode":"CCHL","StationID":"51505","CDBCode":"CDB_S_51505","StateName":"California"},"geometry": { "type": "Point","coordinates": [-121.225,39.48333]}},{"type": "Feature", "id":378, "properties": {"SourceCode":"RAWS","StationName":"Delnorte California","StationCode":"CDNO","StationID":"51521","CDBCode":"CDB_S_51521","StateName":"California"},"geometry": { "type": "Point","coordinates": [-119.654167,34.00917]}},{"type": "Feature", "id":379, "properties": {"SourceCode":"RAWS","StationName":"DWP Powerplant #1 California","StationCode":"CDP1","StationID":"51524","CDBCode":"CDB_S_51524","StateName":"California"},"geometry": { "type": "Point","coordinates": [-118.451111,34.59889]}},{"type": "Feature", "id":380, "properties": {"SourceCode":"RAWS","StationName":"Granite Mountain California","StationCode":"CGRA","StationID":"51539","CDBCode":"CDB_S_51539","StateName":"California"},"geometry": { "type": "Point","coordinates": [-117.025833,34.53556]}},{"type": "Feature", "id":381, "properties": {"SourceCode":"RAWS","StationName":"Ancora Hospital New Jersey","StationCode":"JANC","StationID":"49649","CDBCode":"CDB_S_49649","StateName":"New Jersey"},"geometry": { "type": "Point","coordinates": [-74.86472,39.68472]}},{"type": "Feature", "id":382, "properties": {"SourceCode":"RAWS","StationName":"Anderson Ridge Wyoming","StationCode":"WAND","StationID":"49650","CDBCode":"CDB_S_49650","StateName":"Wyoming"},"geometry": { "type": "Point","coordinates": [-108.940826,42.43722]}},{"type": "Feature", "id":383, "properties": {"SourceCode":"RAWS","StationName":"Andrew Pickens South Carolina","StationCode":"SANP","StationID":"49651","CDBCode":"CDB_S_49651","StateName":"South Carolina"},"geometry": { "type": "Point","coordinates": [-83.125,34.81167]}},{"type": "Feature", "id":384, "properties": {"SourceCode":"RAWS","StationName":"Angel Creek Alaska","StationCode":"AANG","StationID":"49652","CDBCode":"CDB_S_49652","StateName":"Alaska"},"geometry": { "type": "Point","coordinates": [-146.228058,65.02]}},{"type": "Feature", "id":385, "properties": {"SourceCode":"RAWS","StationName":"Augusta Wisconsin","StationCode":"WAUG","StationID":"49683","CDBCode":"CDB_S_49683","StateName":"Wisconsin"},"geometry": { "type": "Point","coordinates": [-91.13417,44.69806]}},