{"type":"FeatureCollection","features": [{"type": "Feature", "id":0, "properties": {"SourceCode":"USCRN","StationName":"Cape Charles","StationCode":"VA_Cape_Charles_5_ENE","StationID":"100013","CDBCode":"CDB_S_100013","StateName":"Virginia"},"geometry": { "type": "Point","coordinates": [-75.92,37.29]}},{"type": "Feature", "id":1, "properties": {"SourceCode":"USCRN","StationName":"Charlottesville","StationCode":"VA_Charlottesville_2_SSE","StationID":"100015","CDBCode":"CDB_S_100015","StateName":"Virginia"},"geometry": { "type": "Point","coordinates": [-78.46,37.99]}},{"type": "Feature", "id":2, "properties": {"SourceCode":"USCRN","StationName":"Los Alamos","StationCode":"NM_Los_Alamos_13_W","StationID":"99981","CDBCode":"CDB_S_99981","StateName":"New Mexico"},"geometry": { "type": "Point","coordinates": [-106.52,35.85]}},{"type": "Feature", "id":3, "properties": {"SourceCode":"USCRN","StationName":"Gadsden","StationCode":"AL_Gadsden_19_N","StationID":"100147","CDBCode":"CDB_S_100147","StateName":"Alabama"},"geometry": { "type": "Point","coordinates": [-85.96,34.28]}},{"type": "Feature", "id":4, "properties": {"SourceCode":"USCRN","StationName":"Brewton","StationCode":"AL_Brewton_3_NNE","StationID":"100162","CDBCode":"CDB_S_100162","StateName":"Alabama"},"geometry": { "type": "Point","coordinates": [-87.05,31.14]}},{"type": "Feature", "id":5, "properties": {"SourceCode":"USCRN","StationName":"Egbert","StationCode":"ON_Egbert_1_W","StationID":"100164","CDBCode":"CDB_S_100164","StateName":"Ontario"},"geometry": { "type": "Point","coordinates": [-79.78,44.23]}},{"type": "Feature", "id":6, "properties": {"SourceCode":"USCRN","StationName":"Medora","StationCode":"ND_Medora_7_E","StationID":"100181","CDBCode":"CDB_S_100181","StateName":"North Dakota"},"geometry": { "type": "Point","coordinates": [-103.37,46.89]}},{"type": "Feature", "id":7, "properties": {"SourceCode":"USCRN","StationName":"Buena Vista","StationCode":"CO_Buena_Vista_2_SSE","StationID":"100063","CDBCode":"CDB_S_100063","StateName":"Colorado"},"geometry": { "type": "Point","coordinates": [-106.12,38.81]}},{"type": "Feature", "id":8, "properties": {"SourceCode":"USCRN","StationName":"Coolidge","StationCode":"AZ_Coolidge_5_W","StationID":"100096","CDBCode":"CDB_S_100096","StateName":"Arizona"},"geometry": { "type": "Point","coordinates": [-111.53,32.99]}},{"type": "Feature", "id":9, "properties": {"SourceCode":"USCRN","StationName":"Chatham","StationCode":"MI_Chatham_1_SE","StationID":"100129","CDBCode":"CDB_S_100129","StateName":"Michigan"},"geometry": { "type": "Point","coordinates": [-86.92,46.33]}},{"type": "Feature", "id":10, "properties": {"SourceCode":"USCRN","StationName":"Shabbona","StationCode":"IL_Shabbona_5_NNE","StationID":"100130","CDBCode":"CDB_S_100130","StateName":"Illinois"},"geometry": { "type": "Point","coordinates": [-88.85,41.84]}},{"type": "Feature", "id":11, "properties": {"SourceCode":"USCRN","StationName":"Coshocton","StationCode":"OH_Coshocton_8_NNE","StationID":"100131","CDBCode":"CDB_S_100131","StateName":"Ohio"},"geometry": { "type": "Point","coordinates": [-81.78,40.36]}},{"type": "Feature", "id":12, "properties": {"SourceCode":"USCRN","StationName":"Center A","StationCode":"CO_Center_A_4_SSW","StationID":"99995","CDBCode":"CDB_S_99995","StateName":"Colorado"},"geometry": { "type": "Point","coordinates": [-106.14,37.7]}},{"type": "Feature", "id":13, "properties": {"SourceCode":"USCRN","StationName":"Springfield","StationCode":"CO_Springfield_6_WSW","StationID":"99997","CDBCode":"CDB_S_99997","StateName":"Colorado"},"geometry": { "type": "Point","coordinates": [-102.71,37.38]}},{"type": "Feature", "id":14, "properties": {"SourceCode":"USCRN","StationName":"Elkins","StationCode":"WV_Elkins_21_ENE","StationID":"100012","CDBCode":"CDB_S_100012","StateName":"West Virginia"},"geometry": { "type": "Point","coordinates": [-79.47,39.01]}},{"type": "Feature", "id":15, "properties": {"SourceCode":"USCRN","StationName":"Durham","StationCode":"NC_Durham_11_W","StationID":"100014","CDBCode":"CDB_S_100014","StateName":"North Carolina"},"geometry": { "type": "Point","coordinates": [-79.09,35.97]}},{"type": "Feature", "id":16, "properties": {"SourceCode":"USCRN","StationName":"Sterling","StationCode":"VA_Sterling_0_N","StationID":"100197","CDBCode":"CDB_S_100197","StateName":"Virginia"},"geometry": { "type": "Point","coordinates": [-77.48,38.97]}},{"type": "Feature", "id":17, "properties": {"SourceCode":"USCRN","StationName":"Oakridge","StationCode":"TN_Oakridge_0_N","StationID":"100198","CDBCode":"CDB_S_100198","StateName":"Tennessee"},"geometry": { "type": "Point","coordinates": [-84.24,36]}},{"type": "Feature", "id":18, "properties": {"SourceCode":"USCRN","StationName":"Cortez","StationCode":"CO_Cortez_8_SE","StationID":"99980","CDBCode":"CDB_S_99980","StateName":"Colorado"},"geometry": { "type": "Point","coordinates": [-108.5,37.25]}},{"type": "Feature", "id":19, "properties": {"SourceCode":"USCRN","StationName":"Brunswick","StationCode":"GA_Brunswick_23_S","StationID":"100146","CDBCode":"CDB_S_100146","StateName":"Georgia"},"geometry": { "type": "Point","coordinates": [-81.45,30.8]}},{"type": "Feature", "id":20, "properties": {"SourceCode":"USCRN","StationName":"Selma","StationCode":"AL_Selma_13_WNW","StationID":"100148","CDBCode":"CDB_S_100148","StateName":"Alabama"},"geometry": { "type": "Point","coordinates": [-87.24,32.45]}},{"type": "Feature", "id":21, "properties": {"SourceCode":"USCRN","StationName":"Millbrook","StationCode":"NY_Millbrook_3_W","StationID":"100163","CDBCode":"CDB_S_100163","StateName":"New York"},"geometry": { "type": "Point","coordinates": [-73.74,41.78]}},{"type": "Feature", "id":22, "properties": {"SourceCode":"USCRN","StationName":"Ithaca","StationCode":"NY_Ithaca_13_E","StationID":"100165","CDBCode":"CDB_S_100165","StateName":"New York"},"geometry": { "type": "Point","coordinates": [-76.24,42.44]}},{"type": "Feature", "id":23, "properties": {"SourceCode":"USCRN","StationName":"Whitman","StationCode":"NE_Whitman_5_ENE","StationID":"100180","CDBCode":"CDB_S_100180","StateName":"Nebraska"},"geometry": { "type": "Point","coordinates": [-101.44,42.06]}},{"type": "Feature", "id":24, "properties": {"SourceCode":"USCRN","StationName":"Buffalo","StationCode":"SD_Buffalo_13_ESE","StationID":"100182","CDBCode":"CDB_S_100182","StateName":"South Dakota"},"geometry": { "type": "Point","coordinates": [-103.3,45.51]}},{"type": "Feature", "id":25, "properties": {"SourceCode":"USCRN","StationName":"Amado","StationCode":"AZ_Amado_23_W","StationID":"100064","CDBCode":"CDB_S_100064","StateName":"Arizona"},"geometry": { "type": "Point","coordinates": [-111.44,31.69]}},{"type": "Feature", "id":26, "properties": {"SourceCode":"USCRN","StationName":"Socorro","StationCode":"NM_Socorro_17_WSW","StationID":"100097","CDBCode":"CDB_S_100097","StateName":"New Mexico"},"geometry": { "type": "Point","coordinates": [-107.18,33.97]}},{"type": "Feature", "id":27, "properties": {"SourceCode":"USCRN","StationName":"Asheville","StationCode":"NC_Asheville_8_SSW","StationID":"100116","CDBCode":"CDB_S_100116","StateName":"North Carolina"},"geometry": { "type": "Point","coordinates": [-82.61,35.49]}},{"type": "Feature", "id":28, "properties": {"SourceCode":"USCRN","StationName":"Gaylord","StationCode":"MI_Gaylord_9_SSW","StationID":"100132","CDBCode":"CDB_S_100132","StateName":"Michigan"},"geometry": { "type": "Point","coordinates": [-84.72,44.9]}},{"type": "Feature", "id":29, "properties": {"SourceCode":"USCRN","StationName":"Redding","StationCode":"CA_Redding_12_WNW","StationID":"100030","CDBCode":"CDB_S_100030","StateName":"California"},"geometry": { "type": "Point","coordinates": [-122.6,40.65]}},{"type": "Feature", "id":30, "properties": {"SourceCode":"USCRN","StationName":"Darrington","StationCode":"WA_Darrington_21_NNE","StationID":"100031","CDBCode":"CDB_S_100031","StateName":"Washington"},"geometry": { "type": "Point","coordinates": [-121.44,48.54]}},{"type": "Feature", "id":31, "properties": {"SourceCode":"USCRN","StationName":"Corvallis","StationCode":"OR_Corvallis_10_SSW","StationID":"100032","CDBCode":"CDB_S_100032","StateName":"Oregon"},"geometry": { "type": "Point","coordinates": [-123.32,44.41]}},{"type": "Feature", "id":32, "properties": {"SourceCode":"USCRN","StationName":"Northport","StationCode":"AL_Northport_2_S","StationID":"100166","CDBCode":"CDB_S_100166","StateName":"Alabama"},"geometry": { "type": "Point","coordinates": [-87.59,33.21]}},{"type": "Feature", "id":33, "properties": {"SourceCode":"USCRN","StationName":"Lander","StationCode":"WY_Lander_11_SSE","StationID":"100179","CDBCode":"CDB_S_100179","StateName":"Wyoming"},"geometry": { "type": "Point","coordinates": [-108.66,42.67]}},{"type": "Feature", "id":34, "properties": {"SourceCode":"USCRN","StationName":"Austin","StationCode":"TX_Austin_33_NW","StationID":"100046","CDBCode":"CDB_S_100046","StateName":"Texas"},"geometry": { "type": "Point","coordinates": [-98.08,30.62]}},{"type": "Feature", "id":35, "properties": {"SourceCode":"USCRN","StationName":"Joplin","StationCode":"MO_Joplin_24_N","StationID":"100047","CDBCode":"CDB_S_100047","StateName":"Missouri"},"geometry": { "type": "Point","coordinates": [-94.58,37.42]}},{"type": "Feature", "id":36, "properties": {"SourceCode":"USCRN","StationName":"Salem","StationCode":"MO_Salem_10_W","StationID":"100048","CDBCode":"CDB_S_100048","StateName":"Missouri"},"geometry": { "type": "Point","coordinates": [-91.72,37.63]}},{"type": "Feature", "id":37, "properties": {"SourceCode":"USCRN","StationName":"Sitka","StationCode":"AK_Sitka_1_NE","StationID":"100049","CDBCode":"CDB_S_100049","StateName":"Alaska"},"geometry": { "type": "Point","coordinates": [-135.32,57.05]}},{"type": "Feature", "id":38, "properties": {"SourceCode":"USCRN","StationName":"Bluff","StationCode":"UT_Bluff_32_NW","StationID":"100062","CDBCode":"CDB_S_100062","StateName":"Utah"},"geometry": { "type": "Point","coordinates": [-109.98,37.6]}},{"type": "Feature", "id":39, "properties": {"SourceCode":"USCRN","StationName":"Las Vegas","StationCode":"NM_Las_Vegas_6_NE","StationID":"100079","CDBCode":"CDB_S_100079","StateName":"New Mexico"},"geometry": { "type": "Point","coordinates": [-105.14,35.66]}},{"type": "Feature", "id":40, "properties": {"SourceCode":"USCRN","StationName":"Hachita","StationCode":"NM_Hachita_7_ESE","StationID":"100080","CDBCode":"CDB_S_100080","StateName":"New Mexico"},"geometry": { "type": "Point","coordinates": [-108.2,31.88]}},{"type": "Feature", "id":41, "properties": {"SourceCode":"USCRN","StationName":"Pinon","StationCode":"NM_Pinon_8_SSE","StationID":"100081","CDBCode":"CDB_S_100081","StateName":"New Mexico"},"geometry": { "type": "Point","coordinates": [-105.33,32.51]}},{"type": "Feature", "id":42, "properties": {"SourceCode":"USCRN","StationName":"Tucson","StationCode":"AZ_Tucson_11_W","StationID":"100082","CDBCode":"CDB_S_100082","StateName":"Arizona"},"geometry": { "type": "Point","coordinates": [-111.16,32.23]}},{"type": "Feature", "id":43, "properties": {"SourceCode":"USCRN","StationName":"Montrose","StationCode":"CO_Montrose_11_ENE","StationID":"99979","CDBCode":"CDB_S_99979","StateName":"Colorado"},"geometry": { "type": "Point","coordinates": [-107.69,38.54]}},{"type": "Feature", "id":44, "properties": {"SourceCode":"USCRN","StationName":"La Junta","StationCode":"CO_La_Junta_17_WSW","StationID":"99982","CDBCode":"CDB_S_99982","StateName":"Colorado"},"geometry": { "type": "Point","coordinates": [-103.82,37.86]}},{"type": "Feature", "id":45, "properties": {"SourceCode":"USCRN","StationName":"Valley Head","StationCode":"AL_Valley_Head_1_SSW","StationID":"100149","CDBCode":"CDB_S_100149","StateName":"Alabama"},"geometry": { "type": "Point","coordinates": [-85.61,34.56]}},{"type": "Feature", "id":46, "properties": {"SourceCode":"USCRN","StationName":"Bowie","StationCode":"AZ_Bowie_23_SSE","StationID":"99996","CDBCode":"CDB_S_99996","StateName":"Arizona"},"geometry": { "type": "Point","coordinates": [-109.38,32]}},{"type": "Feature", "id":47, "properties": {"SourceCode":"USCRN","StationName":"Santa Fe","StationCode":"NM_Santa_Fe_20_WNW","StationID":"99998","CDBCode":"CDB_S_99998","StateName":"New Mexico"},"geometry": { "type": "Point","coordinates": [-106.31,35.82]}},{"type": "Feature", "id":48, "properties": {"SourceCode":"USCRN","StationName":"Woodland Park","StationCode":"CO_Woodland_Park_14_WSW","StationID":"99999","CDBCode":"CDB_S_99999","StateName":"Colorado"},"geometry": { "type": "Point","coordinates": [-105.26,38.91]}},{"type": "Feature", "id":49, "properties": {"SourceCode":"USCRN","StationName":"Provo","StationCode":"UT_Provo_22_E","StationID":"100029","CDBCode":"CDB_S_100029","StateName":"Utah"},"geometry": { "type": "Point","coordinates": [-111.23,40.28]}},{"type": "Feature", "id":50, "properties": {"SourceCode":"USCRN","StationName":"Genoa","StationCode":"CO_Genoa_35_N","StationID":"100004","CDBCode":"CDB_S_100004","StateName":"Colorado"},"geometry": { "type": "Point","coordinates": [-103.51,39.78]}},{"type": "Feature", "id":51, "properties": {"SourceCode":"USCRN","StationName":"Clayton","StationCode":"NM_Clayton_3_ENE","StationID":"100005","CDBCode":"CDB_S_100005","StateName":"New Mexico"},"geometry": { "type": "Point","coordinates": [-103.12,36.47]}},{"type": "Feature", "id":52, "properties": {"SourceCode":"USCRN","StationName":"Meeker","StationCode":"CO_Meeker_15_W","StationID":"100188","CDBCode":"CDB_S_100188","StateName":"Colorado"},"geometry": { "type": "Point","coordinates": [-108.19,40.08]}},{"type": "Feature", "id":53, "properties": {"SourceCode":"USCRN","StationName":"Grantsville","StationCode":"UT_Grantsville_12_WNW","StationID":"100190","CDBCode":"CDB_S_100190","StateName":"Utah"},"geometry": { "type": "Point","coordinates": [-112.67,40.63]}},{"type": "Feature", "id":54, "properties": {"SourceCode":"USCRN","StationName":"Holbrook","StationCode":"AZ_Holbrook_17_ESE","StationID":"99988","CDBCode":"CDB_S_99988","StateName":"Arizona"},"geometry": { "type": "Point","coordinates": [-109.89,34.82]}},{"type": "Feature", "id":55, "properties": {"SourceCode":"USCRN","StationName":"Jamestown","StationCode":"ND_Jamestown_38_WSW","StationID":"100137","CDBCode":"CDB_S_100137","StateName":"North Dakota"},"geometry": { "type": "Point","coordinates": [-99.47,46.77]}},{"type": "Feature", "id":56, "properties": {"SourceCode":"USCRN","StationName":"Newton","StationCode":"GA_Newton_11_SW","StationID":"100140","CDBCode":"CDB_S_100140","StateName":"Georgia"},"geometry": { "type": "Point","coordinates": [-84.44,31.19]}},{"type": "Feature", "id":57, "properties": {"SourceCode":"USCRN","StationName":"Muscle Shoals","StationCode":"AL_Muscle_Shoals_2_N","StationID":"100157","CDBCode":"CDB_S_100157","StateName":"Alabama"},"geometry": { "type": "Point","coordinates": [-87.63,34.77]}},{"type": "Feature", "id":58, "properties": {"SourceCode":"USCRN","StationName":"Bodega","StationCode":"CA_Bodega_6_WSW","StationID":"100173","CDBCode":"CDB_S_100173","StateName":"California"},"geometry": { "type": "Point","coordinates": [-123.07,38.32]}},{"type": "Feature", "id":59, "properties": {"SourceCode":"USCRN","StationName":"Santa Barbara","StationCode":"CA_Santa_Barbara_11_W","StationID":"100090","CDBCode":"CDB_S_100090","StateName":"California"},"geometry": { "type": "Point","coordinates": [-119.87,34.41]}},{"type": "Feature", "id":60, "properties": {"SourceCode":"USCRN","StationName":"Lake Havasu City","StationCode":"AZ_Lake_Havasu_City_19_SE","StationID":"100106","CDBCode":"CDB_S_100106","StateName":"Arizona"},"geometry": { "type": "Point","coordinates": [-114.13,34.25]}},{"type": "Feature", "id":61, "properties": {"SourceCode":"USCRN","StationName":"Palestine","StationCode":"TX_Palestine_6_WNW","StationID":"100122","CDBCode":"CDB_S_100122","StateName":"Texas"},"geometry": { "type": "Point","coordinates": [-95.72,31.77]}},{"type": "Feature", "id":62, "properties": {"SourceCode":"USCRN","StationName":"Dillon","StationCode":"MT_Dillon_18_WSW","StationID":"100024","CDBCode":"CDB_S_100024","StateName":"Montana"},"geometry": { "type": "Point","coordinates": [-113,45.15]}},{"type": "Feature", "id":63, "properties": {"SourceCode":"USCRN","StationName":"Chillicothe","StationCode":"MO_Chillicothe_22_ENE","StationID":"100037","CDBCode":"CDB_S_100037","StateName":"Missouri"},"geometry": { "type": "Point","coordinates": [-93.14,39.86]}},{"type": "Feature", "id":64, "properties": {"SourceCode":"USCRN","StationName":"Vernal","StationCode":"UT_Vernal_23_SSE","StationID":"100189","CDBCode":"CDB_S_100189","StateName":"Utah"},"geometry": { "type": "Point","coordinates": [-109.64,40.13]}},{"type": "Feature", "id":65, "properties": {"SourceCode":"USCRN","StationName":"Manila","StationCode":"UT_Manila_18_ESE","StationID":"100191","CDBCode":"CDB_S_100191","StateName":"Utah"},"geometry": { "type": "Point","coordinates": [-109.38,40.92]}},{"type": "Feature", "id":66, "properties": {"SourceCode":"USCRN","StationName":"Eads","StationCode":"CO_Eads_16_ENE","StationID":"99989","CDBCode":"CDB_S_99989","StateName":"Colorado"},"geometry": { "type": "Point","coordinates": [-102.5,38.54]}},{"type": "Feature", "id":67, "properties": {"SourceCode":"USCRN","StationName":"Blackville","StationCode":"SC_Blackville_3_W","StationID":"100138","CDBCode":"CDB_S_100138","StateName":"South Carolina"},"geometry": { "type": "Point","coordinates": [-81.32,33.35]}},{"type": "Feature", "id":68, "properties": {"SourceCode":"USCRN","StationName":"Newton","StationCode":"GA_Newton_8_W","StationID":"100139","CDBCode":"CDB_S_100139","StateName":"Georgia"},"geometry": { "type": "Point","coordinates": [-84.47,31.31]}},{"type": "Feature", "id":69, "properties": {"SourceCode":"USCRN","StationName":"Greensboro","StationCode":"AL_Greensboro_2_WNW","StationID":"100156","CDBCode":"CDB_S_100156","StateName":"Alabama"},"geometry": { "type": "Point","coordinates": [-87.62,32.71]}},{"type": "Feature", "id":70, "properties": {"SourceCode":"USCRN","StationName":"Merced","StationCode":"CA_Merced_23_WSW","StationID":"100172","CDBCode":"CDB_S_100172","StateName":"California"},"geometry": { "type": "Point","coordinates": [-120.88,37.23]}},{"type": "Feature", "id":71, "properties": {"SourceCode":"USCRN","StationName":"Wolf Point","StationCode":"MT_Wolf_Point_34_NE","StationID":"100174","CDBCode":"CDB_S_100174","StateName":"Montana"},"geometry": { "type": "Point","coordinates": [-105.2,48.48]}},{"type": "Feature", "id":72, "properties": {"SourceCode":"USCRN","StationName":"Kenai","StationCode":"AK_Kenai_29_ENE","StationID":"100057","CDBCode":"CDB_S_100057","StateName":"Alaska"},"geometry": { "type": "Point","coordinates": [-150.44,60.72]}},{"type": "Feature", "id":73, "properties": {"SourceCode":"USCRN","StationName":"Monroe","StationCode":"LA_Monroe_26_N","StationID":"100121","CDBCode":"CDB_S_100121","StateName":"Louisiana"},"geometry": { "type": "Point","coordinates": [-92.11,32.88]}},{"type": "Feature", "id":74, "properties": {"SourceCode":"USCRN","StationName":"Saguache","StationCode":"CO_Saguache_2_WNW","StationID":"99990","CDBCode":"CDB_S_99990","StateName":"Colorado"},"geometry": { "type": "Point","coordinates": [-106.17,38.09]}},{"type": "Feature", "id":75, "properties": {"SourceCode":"USCRN","StationName":"Mills","StationCode":"NM_Mills_6_WSW","StationID":"100006","CDBCode":"CDB_S_100006","StateName":"New Mexico"},"geometry": { "type": "Point","coordinates": [-104.35,36.06]}},{"type": "Feature", "id":76, "properties": {"SourceCode":"USCRN","StationName":"Rifle","StationCode":"CO_Rifle_23_NW","StationID":"100007","CDBCode":"CDB_S_100007","StateName":"Colorado"},"geometry": { "type": "Point","coordinates": [-108.12,39.76]}},{"type": "Feature", "id":77, "properties": {"SourceCode":"USCRN","StationName":"Riley","StationCode":"OR_Riley_10_WSW","StationID":"100020","CDBCode":"CDB_S_100020","StateName":"Oregon"},"geometry": { "type": "Point","coordinates": [-119.69,43.47]}},{"type": "Feature", "id":78, "properties": {"SourceCode":"USCRN","StationName":"St. Mary","StationCode":"MT_St._Mary_1_SSW","StationID":"100021","CDBCode":"CDB_S_100021","StateName":"Montana"},"geometry": { "type": "Point","coordinates": [-113.43,48.74]}},{"type": "Feature", "id":79, "properties": {"SourceCode":"USCRN","StationName":"Grand Junction","StationCode":"CO_Grand_Junction_9_W","StationID":"99987","CDBCode":"CDB_S_99987","StateName":"Colorado"},"geometry": { "type": "Point","coordinates": [-108.73,39.1]}},{"type": "Feature", "id":80, "properties": {"SourceCode":"USCRN","StationName":"Newton","StationCode":"MS_Newton_5_ENE","StationID":"100141","CDBCode":"CDB_S_100141","StateName":"Mississippi"},"geometry": { "type": "Point","coordinates": [-89.07,32.33]}},{"type": "Feature", "id":81, "properties": {"SourceCode":"USCRN","StationName":"St. Paul","StationCode":"AK_St._Paul_4_NE","StationID":"100054","CDBCode":"CDB_S_100054","StateName":"Alaska"},"geometry": { "type": "Point","coordinates": [-170.21,57.15]}},{"type": "Feature", "id":82, "properties": {"SourceCode":"USCRN","StationName":"Fairbanks","StationCode":"AK_Fairbanks_11_NE","StationID":"100055","CDBCode":"CDB_S_100055","StateName":"Alaska"},"geometry": { "type": "Point","coordinates": [-147.51,64.97]}},{"type": "Feature", "id":83, "properties": {"SourceCode":"USCRN","StationName":"Port Alsworth","StationCode":"AK_Port_Alsworth_1_SW","StationID":"100056","CDBCode":"CDB_S_100056","StateName":"Alaska"},"geometry": { "type": "Point","coordinates": [-154.31,60.19]}},{"type": "Feature", "id":84, "properties": {"SourceCode":"USCRN","StationName":"Hagerman","StationCode":"NM_Hagerman_10_ESE","StationID":"100073","CDBCode":"CDB_S_100073","StateName":"New Mexico"},"geometry": { "type": "Point","coordinates": [-104.16,33.08]}},{"type": "Feature", "id":85, "properties": {"SourceCode":"USCRN","StationName":"Vaughn","StationCode":"NM_Vaughn_36_SSE","StationID":"100074","CDBCode":"CDB_S_100074","StateName":"New Mexico"},"geometry": { "type": "Point","coordinates": [-104.93,34.13]}},{"type": "Feature", "id":86, "properties": {"SourceCode":"USCRN","StationName":"Nageezi","StationCode":"NM_Nageezi_18_SSW","StationID":"100107","CDBCode":"CDB_S_100107","StateName":"New Mexico"},"geometry": { "type": "Point","coordinates": [-107.9,36.03]}},{"type": "Feature", "id":87, "properties": {"SourceCode":"USCRN","StationName":"Clanton","StationCode":"AL_Clanton_2_NE","StationID":"100154","CDBCode":"CDB_S_100154","StateName":"Alabama"},"geometry": { "type": "Point","coordinates": [-86.61,32.85]}},{"type": "Feature", "id":88, "properties": {"SourceCode":"USCRN","StationName":"Gainesville","StationCode":"AL_Gainesville_2_NE","StationID":"100155","CDBCode":"CDB_S_100155","StateName":"Alabama"},"geometry": { "type": "Point","coordinates": [-88.13,32.83]}},{"type": "Feature", "id":89, "properties": {"SourceCode":"USCRN","StationName":"Sebring","StationCode":"FL_Sebring_23_SSE","StationID":"100171","CDBCode":"CDB_S_100171","StateName":"Florida"},"geometry": { "type": "Point","coordinates": [-81.36,27.15]}},{"type": "Feature", "id":90, "properties": {"SourceCode":"USCRN","StationName":"Moose","StationCode":"WY_Moose_1_NNE","StationID":"100022","CDBCode":"CDB_S_100022","StateName":"Wyoming"},"geometry": { "type": "Point","coordinates": [-110.71,43.66]}},{"type": "Feature", "id":91, "properties": {"SourceCode":"USCRN","StationName":"Spokane","StationCode":"WA_Spokane_17_SSW","StationID":"100023","CDBCode":"CDB_S_100023","StateName":"Washington"},"geometry": { "type": "Point","coordinates": [-117.52,47.41]}},{"type": "Feature", "id":92, "properties": {"SourceCode":"USCRN","StationName":"Mauna Loa","StationCode":"HI_Mauna_Loa_5_NNE","StationID":"100038","CDBCode":"CDB_S_100038","StateName":"Hawaii"},"geometry": { "type": "Point","coordinates": [-155.57,19.53]}},{"type": "Feature", "id":93, "properties": {"SourceCode":"USCRN","StationName":"Hilo","StationCode":"HI_Hilo_5_S","StationID":"100039","CDBCode":"CDB_S_100039","StateName":"Hawaii"},"geometry": { "type": "Point","coordinates": [-155.08,19.64]}},{"type": "Feature", "id":94, "properties": {"SourceCode":"USCRN","StationName":"Panther Junction","StationCode":"TX_Panther_Junction_2_N","StationID":"100040","CDBCode":"CDB_S_100040","StateName":"Texas"},"geometry": { "type": "Point","coordinates": [-103.2,29.34]}},{"type": "Feature", "id":95, "properties": {"SourceCode":"USCRN","StationName":"Cedar City","StationCode":"UT_Cedar_City_18_SSE","StationID":"100071","CDBCode":"CDB_S_100071","StateName":"Utah"},"geometry": { "type": "Point","coordinates": [-113.22,37.45]}},{"type": "Feature", "id":96, "properties": {"SourceCode":"USCRN","StationName":"Mexican Hat","StationCode":"UT_Mexican_Hat_10_NW","StationID":"100072","CDBCode":"CDB_S_100072","StateName":"Utah"},"geometry": { "type": "Point","coordinates": [-109.98,37.25]}},{"type": "Feature", "id":97, "properties": {"SourceCode":"USCRN","StationName":"Torrey","StationCode":"UT_Torrey_7_E","StationID":"100087","CDBCode":"CDB_S_100087","StateName":"Utah"},"geometry": { "type": "Point","coordinates": [-111.29,38.3]}},{"type": "Feature", "id":98, "properties": {"SourceCode":"USCRN","StationName":"Yosemite Village","StationCode":"CA_Yosemite_Village_12_W","StationID":"100088","CDBCode":"CDB_S_100088","StateName":"California"},"geometry": { "type": "Point","coordinates": [-119.82,37.75]}},{"type": "Feature", "id":99, "properties": {"SourceCode":"USCRN","StationName":"Kim","StationCode":"CO_Kim_9_WSW","StationID":"100002","CDBCode":"CDB_S_100002","StateName":"Colorado"},"geometry": { "type": "Point","coordinates": [-103.5,37.21]}},{"type": "Feature", "id":100, "properties": {"SourceCode":"USCRN","StationName":"Brigham City","StationCode":"UT_Brigham_City_28_WNW","StationID":"100025","CDBCode":"CDB_S_100025","StateName":"Utah"},"geometry": { "type": "Point","coordinates": [-112.54,41.61]}},{"type": "Feature", "id":101, "properties": {"SourceCode":"USCRN","StationName":"Sioux Falls","StationCode":"SD_Sioux_Falls_14_NNE","StationID":"100034","CDBCode":"CDB_S_100034","StateName":"South Dakota"},"geometry": { "type": "Point","coordinates": [-96.62,43.73]}},{"type": "Feature", "id":102, "properties": {"SourceCode":"USCRN","StationName":"Edinburg","StationCode":"TX_Edinburg_17_NNE","StationID":"100036","CDBCode":"CDB_S_100036","StateName":"Texas"},"geometry": { "type": "Point","coordinates": [-98.06,26.52]}},{"type": "Feature", "id":103, "properties": {"SourceCode":"USCRN","StationName":"Dulce","StationCode":"NM_Dulce_1_NW","StationID":"99986","CDBCode":"CDB_S_99986","StateName":"New Mexico"},"geometry": { "type": "Point","coordinates": [-107,36.93]}},{"type": "Feature", "id":104, "properties": {"SourceCode":"USCRN","StationName":"Crossville","StationCode":"TN_Crossville_7_NW","StationID":"100145","CDBCode":"CDB_S_100145","StateName":"Tennessee"},"geometry": { "type": "Point","coordinates": [-85.13,36.01]}},{"type": "Feature", "id":105, "properties": {"SourceCode":"USCRN","StationName":"Guntersville","StationCode":"AL_Guntersville_2_SW","StationID":"100150","CDBCode":"CDB_S_100150","StateName":"Alabama"},"geometry": { "type": "Point","coordinates": [-86.31,34.33]}},{"type": "Feature", "id":106, "properties": {"SourceCode":"USCRN","StationName":"Scottsboro","StationCode":"AL_Scottsboro_2_NE","StationID":"100159","CDBCode":"CDB_S_100159","StateName":"Alabama"},"geometry": { "type": "Point","coordinates": [-85.99,34.69]}},{"type": "Feature", "id":107, "properties": {"SourceCode":"USCRN","StationName":"Wolf Point","StationCode":"MT_Wolf_Point_29_ENE","StationID":"100175","CDBCode":"CDB_S_100175","StateName":"Montana"},"geometry": { "type": "Point","coordinates": [-105.1,48.3]}},{"type": "Feature", "id":108, "properties": {"SourceCode":"USCRN","StationName":"Grants","StationCode":"NM_Grants_2_S","StationID":"100061","CDBCode":"CDB_S_100061","StateName":"New Mexico"},"geometry": { "type": "Point","coordinates": [-107.83,35.11]}},{"type": "Feature", "id":109, "properties": {"SourceCode":"USCRN","StationName":"Aztec","StationCode":"NM_Aztec_43_E","StationID":"100075","CDBCode":"CDB_S_100075","StateName":"New Mexico"},"geometry": { "type": "Point","coordinates": [-107.21,36.74]}},{"type": "Feature", "id":110, "properties": {"SourceCode":"USCRN","StationName":"McClellanville","StationCode":"SC_McClellanville_7_NE","StationID":"100011","CDBCode":"CDB_S_100011","StateName":"South Carolina"},"geometry": { "type": "Point","coordinates": [-79.36,33.15]}},{"type": "Feature", "id":111, "properties": {"SourceCode":"USCRN","StationName":"Lewistown","StationCode":"MT_Lewistown_42_WSW","StationID":"100027","CDBCode":"CDB_S_100027","StateName":"Montana"},"geometry": { "type": "Point","coordinates": [-110.28,46.88]}},{"type": "Feature", "id":112, "properties": {"SourceCode":"USCRN","StationName":"Monahans","StationCode":"TX_Monahans_6_ENE","StationID":"99975","CDBCode":"CDB_S_99975","StateName":"Texas"},"geometry": { "type": "Point","coordinates": [-102.8,31.62]}},{"type": "Feature", "id":113, "properties": {"SourceCode":"USCRN","StationName":"Holly Springs","StationCode":"MS_Holly_Springs_4_N","StationID":"100043","CDBCode":"CDB_S_100043","StateName":"Mississippi"},"geometry": { "type": "Point","coordinates": [-89.43,34.82]}},{"type": "Feature", "id":114, "properties": {"SourceCode":"USCRN","StationName":"Port Aransas","StationCode":"TX_Port_Aransas_32_NNE","StationID":"100045","CDBCode":"CDB_S_100045","StateName":"Texas"},"geometry": { "type": "Point","coordinates": [-96.82,28.3]}},{"type": "Feature", "id":115, "properties": {"SourceCode":"USCRN","StationName":"Gustavus","StationCode":"AK_Gustavus_2_NE","StationID":"100050","CDBCode":"CDB_S_100050","StateName":"Alaska"},"geometry": { "type": "Point","coordinates": [-135.69,58.42]}},{"type": "Feature", "id":116, "properties": {"SourceCode":"USCRN","StationName":"King Salmon","StationCode":"AK_King_Salmon_42_SE","StationID":"100052","CDBCode":"CDB_S_100052","StateName":"Alaska"},"geometry": { "type": "Point","coordinates": [-155.92,58.2]}},{"type": "Feature", "id":117, "properties": {"SourceCode":"USCRN","StationName":"Barrow","StationCode":"AK_Barrow_4_ENE","StationID":"100059","CDBCode":"CDB_S_100059","StateName":"Alaska"},"geometry": { "type": "Point","coordinates": [-156.61,71.32]}},{"type": "Feature", "id":118, "properties": {"SourceCode":"USCRN","StationName":"Blanding","StationCode":"UT_Blanding_26_SSW","StationID":"100070","CDBCode":"CDB_S_100070","StateName":"Utah"},"geometry": { "type": "Point","coordinates": [-109.6,37.26]}},{"type": "Feature", "id":119, "properties": {"SourceCode":"USCRN","StationName":"Elida","StationCode":"NM_Elida_14_SW","StationID":"100077","CDBCode":"CDB_S_100077","StateName":"New Mexico"},"geometry": { "type": "Point","coordinates": [-103.84,33.8]}},{"type": "Feature", "id":120, "properties": {"SourceCode":"USCRN","StationName":"Mercury","StationCode":"NV_Mercury_3_SSW","StationID":"100084","CDBCode":"CDB_S_100084","StateName":"Nevada"},"geometry": { "type": "Point","coordinates": [-116.02,36.62]}},{"type": "Feature", "id":121, "properties": {"SourceCode":"USCRN","StationName":"Stovepipe Wells","StationCode":"CA_Stovepipe_Wells_1_SW","StationID":"100086","CDBCode":"CDB_S_100086","StateName":"California"},"geometry": { "type": "Point","coordinates": [-117.14,36.6]}},{"type": "Feature", "id":122, "properties": {"SourceCode":"USCRN","StationName":"Camp Verde","StationCode":"AZ_Camp_Verde_3_N","StationID":"100095","CDBCode":"CDB_S_100095","StateName":"Arizona"},"geometry": { "type": "Point","coordinates": [-111.84,34.61]}},{"type": "Feature", "id":123, "properties": {"SourceCode":"USCRN","StationName":"St. George","StationCode":"UT_St._George_15_NE","StationID":"100100","CDBCode":"CDB_S_100100","StateName":"Utah"},"geometry": { "type": "Point","coordinates": [-113.37,37.21]}},{"type": "Feature", "id":124, "properties": {"SourceCode":"USCRN","StationName":"Gila Bend","StationCode":"AZ_Gila_Bend_3_ENE","StationID":"100109","CDBCode":"CDB_S_100109","StateName":"Arizona"},"geometry": { "type": "Point","coordinates": [-112.66,32.96]}},{"type": "Feature", "id":125, "properties": {"SourceCode":"USCRN","StationName":"Safford","StationCode":"AZ_Safford_5_NNE","StationID":"100111","CDBCode":"CDB_S_100111","StateName":"Arizona"},"geometry": { "type": "Point","coordinates": [-109.63,32.85]}},{"type": "Feature", "id":126, "properties": {"SourceCode":"USCRN","StationName":"Stillwater","StationCode":"OK_Stillwater_2_W","StationID":"100118","CDBCode":"CDB_S_100118","StateName":"Oklahoma"},"geometry": { "type": "Point","coordinates": [-97.09,36.11]}},{"type": "Feature", "id":127, "properties": {"SourceCode":"USCRN","StationName":"Lafayette","StationCode":"LA_Lafayette_13_SE","StationID":"100120","CDBCode":"CDB_S_100120","StateName":"Louisiana"},"geometry": { "type": "Point","coordinates": [-91.87,30.09]}},{"type": "Feature", "id":128, "properties": {"SourceCode":"USCRN","StationName":"Kingston","StationCode":"RI_Kingston_1_W","StationID":"100127","CDBCode":"CDB_S_100127","StateName":"Rhode Island"},"geometry": { "type": "Point","coordinates": [-71.54,41.47]}},{"type": "Feature", "id":129, "properties": {"SourceCode":"USCRN","StationName":"Necedah","StationCode":"WI_Necedah_5_WNW","StationID":"100134","CDBCode":"CDB_S_100134","StateName":"Wisconsin"},"geometry": { "type": "Point","coordinates": [-90.17,44.06]}},{"type": "Feature", "id":130, "properties": {"SourceCode":"USCRN","StationName":"Reserve","StationCode":"NM_Reserve_1_W","StationID":"99991","CDBCode":"CDB_S_99991","StateName":"New Mexico"},"geometry": { "type": "Point","coordinates": [-108.77,33.71]}},{"type": "Feature", "id":131, "properties": {"SourceCode":"USCRN","StationName":"Carrizozo","StationCode":"NM_Carrizozo_1_W","StationID":"99993","CDBCode":"CDB_S_99993","StateName":"New Mexico"},"geometry": { "type": "Point","coordinates": [-105.89,33.64]}},{"type": "Feature", "id":132, "properties": {"SourceCode":"USCRN","StationName":"Avondale","StationCode":"PA_Avondale_2_N","StationID":"100016","CDBCode":"CDB_S_100016","StateName":"Pennsylvania"},"geometry": { "type": "Point","coordinates": [-75.78,39.85]}},{"type": "Feature", "id":133, "properties": {"SourceCode":"USCRN","StationName":"Arco","StationCode":"ID_Arco_17_SW","StationID":"100018","CDBCode":"CDB_S_100018","StateName":"Idaho"},"geometry": { "type": "Point","coordinates": [-113.55,43.46]}},{"type": "Feature", "id":134, "properties": {"SourceCode":"USCRN","StationName":"Limestone","StationCode":"ME_Limestone_4_NNW","StationID":"100193","CDBCode":"CDB_S_100193","StateName":"Maine"},"geometry": { "type": "Point","coordinates": [-67.88,46.96]}},{"type": "Feature", "id":135, "properties": {"SourceCode":"USCRN","StationName":"Aberdeen","StationCode":"SD_Aberdeen_35_WNW","StationID":"100136","CDBCode":"CDB_S_100136","StateName":"South Dakota"},"geometry": { "type": "Point","coordinates": [-99.12,45.71]}},{"type": "Feature", "id":136, "properties": {"SourceCode":"USCRN","StationName":"Bowling Green","StationCode":"KY_Bowling_Green_21_NNE","StationID":"100143","CDBCode":"CDB_S_100143","StateName":"Kentucky"},"geometry": { "type": "Point","coordinates": [-86.23,37.25]}},{"type": "Feature", "id":137, "properties": {"SourceCode":"USCRN","StationName":"Talladega","StationCode":"AL_Talladega_10_NNE","StationID":"100168","CDBCode":"CDB_S_100168","StateName":"Alabama"},"geometry": { "type": "Point","coordinates": [-86.05,33.57]}},{"type": "Feature", "id":138, "properties": {"SourceCode":"USCRN","StationName":"Boulder","StationCode":"CO_Boulder_14_W","StationID":"100177","CDBCode":"CDB_S_100177","StateName":"Colorado"},"geometry": { "type": "Point","coordinates": [-105.54,40.03]}},{"type": "Feature", "id":139, "properties": {"SourceCode":"USCRN","StationName":"Yuma","StationCode":"AZ_Yuma_27_ENE","StationID":"100091","CDBCode":"CDB_S_100091","StateName":"Arizona"},"geometry": { "type": "Point","coordinates": [-114.18,32.83]}},{"type": "Feature", "id":140, "properties": {"SourceCode":"USCRN","StationName":"Phoenix","StationCode":"AZ_Phoenix_7_S","StationID":"100093","CDBCode":"CDB_S_100093","StateName":"Arizona"},"geometry": { "type": "Point","coordinates": [-112.08,33.34]}},{"type": "Feature", "id":141, "properties": {"SourceCode":"USCRN","StationName":"Durham","StationCode":"NH_Durham_2_SSW","StationID":"100125","CDBCode":"CDB_S_100125","StateName":"New Hampshire"},"geometry": { "type": "Point","coordinates": [-70.94,43.1]}},{"type": "Feature", "id":142, "properties": {"SourceCode":"USCRN","StationName":"Muleshoe","StationCode":"TX_Muleshoe_19_S","StationID":"99977","CDBCode":"CDB_S_99977","StateName":"Texas"},"geometry": { "type": "Point","coordinates": [-102.77,33.95]}},{"type": "Feature", "id":143, "properties": {"SourceCode":"USCRN","StationName":"Bronte","StationCode":"TX_Bronte_11_NNE","StationID":"99984","CDBCode":"CDB_S_99984","StateName":"Texas"},"geometry": { "type": "Point","coordinates": [-100.24,32.04]}},{"type": "Feature", "id":144, "properties": {"SourceCode":"USCRN","StationName":"Courtland","StationCode":"AL_Courtland_2_WSW","StationID":"100152","CDBCode":"CDB_S_100152","StateName":"Alabama"},"geometry": { "type": "Point","coordinates": [-87.34,34.66]}},{"type": "Feature", "id":145, "properties": {"SourceCode":"USCRN","StationName":"Bedford","StationCode":"IN_Bedford_5_WNW","StationID":"100161","CDBCode":"CDB_S_100161","StateName":"Indiana"},"geometry": { "type": "Point","coordinates": [-86.57,38.88]}},{"type": "Feature", "id":146, "properties": {"SourceCode":"USCRN","StationName":"Everglades City","StationCode":"FL_Everglades_City_5_NE","StationID":"100170","CDBCode":"CDB_S_100170","StateName":"Florida"},"geometry": { "type": "Point","coordinates": [-81.31,25.89]}},{"type": "Feature", "id":147, "properties": {"SourceCode":"USCRN","StationName":"Rocky Ford","StationCode":"CO_Rocky_Ford_1_ESE","StationID":"100000","CDBCode":"CDB_S_100000","StateName":"Colorado"},"geometry": { "type": "Point","coordinates": [-103.69,38.03]}},{"type": "Feature", "id":148, "properties": {"SourceCode":"USCRN","StationName":"Tropic","StationCode":"UT_Tropic_9_SE","StationID":"99992","CDBCode":"CDB_S_99992","StateName":"Utah"},"geometry": { "type": "Point","coordinates": [-111.97,37.51]}},{"type": "Feature", "id":149, "properties": {"SourceCode":"USCRN","StationName":"Stratton","StationCode":"CO_Stratton_24_N","StationID":"99994","CDBCode":"CDB_S_99994","StateName":"Colorado"},"geometry": { "type": "Point","coordinates": [-102.62,39.65]}},{"type": "Feature", "id":150, "properties": {"SourceCode":"USCRN","StationName":"Denio","StationCode":"NV_Denio_52_WSW","StationID":"100026","CDBCode":"CDB_S_100026","StateName":"Nevada"},"geometry": { "type": "Point","coordinates": [-119.63,41.84]}},{"type": "Feature", "id":151, "properties": {"SourceCode":"USCRN","StationName":"Dinosaur","StationCode":"CO_Dinosaur_2_E","StationID":"100183","CDBCode":"CDB_S_100183","StateName":"Colorado"},"geometry": { "type": "Point","coordinates": [-108.96,40.24]}},{"type": "Feature", "id":152, "properties": {"SourceCode":"USCRN","StationName":"Old Town","StationCode":"ME_Old_Town_2_W","StationID":"100192","CDBCode":"CDB_S_100192","StateName":"Maine"},"geometry": { "type": "Point","coordinates": [-68.7,44.92]}},{"type": "Feature", "id":153, "properties": {"SourceCode":"USCRN","StationName":"Thomasville","StationCode":"AL_Thomasville_2_S","StationID":"100042","CDBCode":"CDB_S_100042","StateName":"Alabama"},"geometry": { "type": "Point","coordinates": [-87.73,31.88]}},{"type": "Feature", "id":154, "properties": {"SourceCode":"USCRN","StationName":"Batesville","StationCode":"AR_Batesville_8_WNW","StationID":"100044","CDBCode":"CDB_S_100044","StateName":"Arkansas"},"geometry": { "type": "Point","coordinates": [-91.78,35.82]}},{"type": "Feature", "id":155, "properties": {"SourceCode":"USCRN","StationName":"Metlakatla","StationCode":"AK_Metlakatla_6_S","StationID":"100051","CDBCode":"CDB_S_100051","StateName":"Alaska"},"geometry": { "type": "Point","coordinates": [-131.58,55.04]}},{"type": "Feature", "id":156, "properties": {"SourceCode":"USCRN","StationName":"Red Dog Mine","StationCode":"AK_Red_Dog_Mine_3_SSW","StationID":"100058","CDBCode":"CDB_S_100058","StateName":"Alaska"},"geometry": { "type": "Point","coordinates": [-162.92,68.02]}},{"type": "Feature", "id":157, "properties": {"SourceCode":"USCRN","StationName":"Spanish Valley","StationCode":"UT_Spanish_Valley_25_SW","StationID":"100078","CDBCode":"CDB_S_100078","StateName":"Utah"},"geometry": { "type": "Point","coordinates": [-109.85,38.31]}},{"type": "Feature", "id":158, "properties": {"SourceCode":"USCRN","StationName":"Elgin","StationCode":"AZ_Elgin_5_S","StationID":"100083","CDBCode":"CDB_S_100083","StateName":"Arizona"},"geometry": { "type": "Point","coordinates": [-110.5,31.59]}},{"type": "Feature", "id":159, "properties": {"SourceCode":"USCRN","StationName":"Baker","StationCode":"NV_Baker_5_W","StationID":"100085","CDBCode":"CDB_S_100085","StateName":"Nevada"},"geometry": { "type": "Point","coordinates": [-114.2,39.01]}},{"type": "Feature", "id":160, "properties": {"SourceCode":"USCRN","StationName":"Midway","StationCode":"UT_Midway_3_NE","StationID":"100101","CDBCode":"CDB_S_100101","StateName":"Utah"},"geometry": { "type": "Point","coordinates": [-111.41,40.54]}},{"type": "Feature", "id":161, "properties": {"SourceCode":"USCRN","StationName":"Price","StationCode":"UT_Price_3_E","StationID":"100108","CDBCode":"CDB_S_100108","StateName":"Utah"},"geometry": { "type": "Point","coordinates": [-110.75,39.6]}},{"type": "Feature", "id":162, "properties": {"SourceCode":"USCRN","StationName":"Kingman","StationCode":"AZ_Kingman_8_NE","StationID":"100110","CDBCode":"CDB_S_100110","StateName":"Arizona"},"geometry": { "type": "Point","coordinates": [-113.93,35.25]}},{"type": "Feature", "id":163, "properties": {"SourceCode":"USCRN","StationName":"Asheville","StationCode":"NC_Asheville_13_S","StationID":"100117","CDBCode":"CDB_S_100117","StateName":"North Carolina"},"geometry": { "type": "Point","coordinates": [-82.55,35.41]}},{"type": "Feature", "id":164, "properties": {"SourceCode":"USCRN","StationName":"Stillwater","StationCode":"OK_Stillwater_5_WNW","StationID":"100119","CDBCode":"CDB_S_100119","StateName":"Oklahoma"},"geometry": { "type": "Point","coordinates": [-97.1,36.13]}},{"type": "Feature", "id":165, "properties": {"SourceCode":"USCRN","StationName":"Champaign","StationCode":"IL_Champaign_9_SW","StationID":"100128","CDBCode":"CDB_S_100128","StateName":"Illinois"},"geometry": { "type": "Point","coordinates": [-88.37,40.05]}},{"type": "Feature", "id":166, "properties": {"SourceCode":"USCRN","StationName":"Raton","StationCode":"NM_Raton_26_ESE","StationID":"100003","CDBCode":"CDB_S_100003","StateName":"New Mexico"},"geometry": { "type": "Point","coordinates": [-103.98,36.77]}},{"type": "Feature", "id":167, "properties": {"SourceCode":"USCRN","StationName":"Goodridge","StationCode":"MN_Goodridge_12_NNW","StationID":"100035","CDBCode":"CDB_S_100035","StateName":"Minnesota"},"geometry": { "type": "Point","coordinates": [-95.87,48.3]}},{"type": "Feature", "id":168, "properties": {"SourceCode":"USCRN","StationName":"Russellville","StationCode":"AL_Russellville_4_SSE","StationID":"100158","CDBCode":"CDB_S_100158","StateName":"Alabama"},"geometry": { "type": "Point","coordinates": [-87.71,34.45]}},{"type": "Feature", "id":169, "properties": {"SourceCode":"USCRN","StationName":"Tsaile","StationCode":"AZ_Tsaile_1_SSW","StationID":"100069","CDBCode":"CDB_S_100069","StateName":"Arizona"},"geometry": { "type": "Point","coordinates": [-109.21,36.29]}},{"type": "Feature", "id":170, "properties": {"SourceCode":"USCRN","StationName":"Whiteriver A","StationCode":"AZ_Whiteriver_A_1_SW","StationID":"100076","CDBCode":"CDB_S_100076","StateName":"Arizona"},"geometry": { "type": "Point","coordinates": [-109.98,33.82]}},{"type": "Feature", "id":171, "properties": {"SourceCode":"USCRN","StationName":"Kayenta","StationCode":"AZ_Kayenta_16_WSW","StationID":"100103","CDBCode":"CDB_S_100103","StateName":"Arizona"},"geometry": { "type": "Point","coordinates": [-110.54,36.68]}},{"type": "Feature", "id":172, "properties": {"SourceCode":"USCRN","StationName":"Taos","StationCode":"NM_Taos_27_NW","StationID":"100001","CDBCode":"CDB_S_100001","StateName":"New Mexico"},"geometry": { "type": "Point","coordinates": [-105.97,36.65]}},{"type": "Feature", "id":173, "properties": {"SourceCode":"USCRN","StationName":"Mountainair","StationCode":"NM_Mountainair_2_WSW","StationID":"100008","CDBCode":"CDB_S_100008","StateName":"New Mexico"},"geometry": { "type": "Point","coordinates": [-106.27,34.51]}},{"type": "Feature", "id":174, "properties": {"SourceCode":"USCRN","StationName":"John Day","StationCode":"OR_John_Day_35_WNW","StationID":"100017","CDBCode":"CDB_S_100017","StateName":"Oregon"},"geometry": { "type": "Point","coordinates": [-119.64,44.55]}},{"type": "Feature", "id":175, "properties": {"SourceCode":"USCRN","StationName":"Murphy","StationCode":"ID_Murphy_10_W","StationID":"100019","CDBCode":"CDB_S_100019","StateName":"Idaho"},"geometry": { "type": "Point","coordinates": [-116.75,43.2]}},{"type": "Feature", "id":176, "properties": {"SourceCode":"USCRN","StationName":"Quinault","StationCode":"WA_Quinault_4_NE","StationID":"100033","CDBCode":"CDB_S_100033","StateName":"Washington"},"geometry": { "type": "Point","coordinates": [-123.81,47.51]}},{"type": "Feature", "id":177, "properties": {"SourceCode":"USCRN","StationName":"Sandstone","StationCode":"MN_Sandstone_6_W","StationID":"100135","CDBCode":"CDB_S_100135","StateName":"Minnesota"},"geometry": { "type": "Point","coordinates": [-92.99,46.11]}},{"type": "Feature", "id":178, "properties": {"SourceCode":"USCRN","StationName":"Versailles","StationCode":"KY_Versailles_3_NNW","StationID":"100142","CDBCode":"CDB_S_100142","StateName":"Kentucky"},"geometry": { "type": "Point","coordinates": [-84.74,38.09]}},{"type": "Feature", "id":179, "properties": {"SourceCode":"USCRN","StationName":"Watkinsville","StationCode":"GA_Watkinsville_5_SSE","StationID":"100144","CDBCode":"CDB_S_100144","StateName":"Georgia"},"geometry": { "type": "Point","coordinates": [-83.38,33.78]}},{"type": "Feature", "id":180, "properties": {"SourceCode":"USCRN","StationName":"Highland Home","StationCode":"AL_Highland_Home_2_S","StationID":"100167","CDBCode":"CDB_S_100167","StateName":"Alabama"},"geometry": { "type": "Point","coordinates": [-86.31,31.91]}},{"type": "Feature", "id":181, "properties": {"SourceCode":"USCRN","StationName":"Titusville","StationCode":"FL_Titusville_7_E","StationID":"100169","CDBCode":"CDB_S_100169","StateName":"Florida"},"geometry": { "type": "Point","coordinates": [-80.69,28.61]}},{"type": "Feature", "id":182, "properties": {"SourceCode":"USCRN","StationName":"Nunn","StationCode":"CO_Nunn_7_NNE","StationID":"100176","CDBCode":"CDB_S_100176","StateName":"Colorado"},"geometry": { "type": "Point","coordinates": [-104.75,40.8]}},{"type": "Feature", "id":183, "properties": {"SourceCode":"USCRN","StationName":"Harrison","StationCode":"NE_Harrison_20_SSE","StationID":"100178","CDBCode":"CDB_S_100178","StateName":"Nebraska"},"geometry": { "type": "Point","coordinates": [-103.73,42.42]}},{"type": "Feature", "id":184, "properties": {"SourceCode":"USCRN","StationName":"Sand Point","StationCode":"AK_Sand_Point_1_ENE","StationID":"100053","CDBCode":"CDB_S_100053","StateName":"Alaska"},"geometry": { "type": "Point","coordinates": [-160.46,55.34]}},{"type": "Feature", "id":185, "properties": {"SourceCode":"USCRN","StationName":"Artesia","StationCode":"NM_Artesia_2_WNW","StationID":"100060","CDBCode":"CDB_S_100060","StateName":"New Mexico"},"geometry": { "type": "Point","coordinates": [-104.45,32.85]}},{"type": "Feature", "id":186, "properties": {"SourceCode":"USCRN","StationName":"Williams","StationCode":"AZ_Williams_35_NNW","StationID":"100092","CDBCode":"CDB_S_100092","StateName":"Arizona"},"geometry": { "type": "Point","coordinates": [-112.33,35.75]}},{"type": "Feature", "id":187, "properties": {"SourceCode":"USCRN","StationName":"Kingston","StationCode":"RI_Kingston_1_NW","StationID":"100126","CDBCode":"CDB_S_100126","StateName":"Rhode Island"},"geometry": { "type": "Point","coordinates": [-71.54,41.49]}},{"type": "Feature", "id":188, "properties": {"SourceCode":"USCRN","StationName":"Socorro","StationCode":"NM_Socorro_20_N","StationID":"99976","CDBCode":"CDB_S_99976","StateName":"New Mexico"},"geometry": { "type": "Point","coordinates": [-106.88,34.35]}},{"type": "Feature", "id":189, "properties": {"SourceCode":"USCRN","StationName":"Goodwell","StationCode":"OK_Goodwell_2_E","StationID":"99978","CDBCode":"CDB_S_99978","StateName":"Oklahoma"},"geometry": { "type": "Point","coordinates": [-101.59,36.59]}},{"type": "Feature", "id":190, "properties": {"SourceCode":"USCRN","StationName":"Oakley","StationCode":"KS_Oakley_19_SSW","StationID":"99983","CDBCode":"CDB_S_99983","StateName":"Kansas"},"geometry": { "type": "Point","coordinates": [-100.96,38.87]}},{"type": "Feature", "id":191, "properties": {"SourceCode":"USCRN","StationName":"Las Cruces","StationCode":"NM_Las_Cruces_20_N","StationID":"99985","CDBCode":"CDB_S_99985","StateName":"New Mexico"},"geometry": { "type": "Point","coordinates": [-106.74,32.61]}},{"type": "Feature", "id":192, "properties": {"SourceCode":"USCRN","StationName":"Cullman","StationCode":"AL_Cullman_3_ENE","StationID":"100151","CDBCode":"CDB_S_100151","StateName":"Alabama"},"geometry": { "type": "Point","coordinates": [-86.79,34.19]}},{"type": "Feature", "id":193, "properties": {"SourceCode":"USCRN","StationName":"Fairhope","StationCode":"AL_Fairhope_3_NE","StationID":"100153","CDBCode":"CDB_S_100153","StateName":"Alabama"},"geometry": { "type": "Point","coordinates": [-87.87,30.54]}},{"type": "Feature", "id":194, "properties": {"SourceCode":"USCRN","StationName":"Selma","StationCode":"AL_Selma_6_SSE","StationID":"100160","CDBCode":"CDB_S_100160","StateName":"Alabama"},"geometry": { "type": "Point","coordinates": [-86.97,32.33]}},{"type": "Feature", "id":195, "properties": {"SourceCode":"USCRN","StationName":"Craig","StationCode":"CO_Craig_30_N","StationID":"100010","CDBCode":"CDB_S_100010","StateName":"Colorado"},"geometry": { "type": "Point","coordinates": [-107.6,40.94]}},{"type": "Feature", "id":196, "properties": {"SourceCode":"USCRN","StationName":"Coos Bay","StationCode":"OR_Coos_Bay_8_SW","StationID":"100028","CDBCode":"CDB_S_100028","StateName":"Oregon"},"geometry": { "type": "Point","coordinates": [-124.31,43.27]}},{"type": "Feature", "id":197, "properties": {"SourceCode":"USCRN","StationName":"Pierre","StationCode":"SD_Pierre_24_S","StationID":"100185","CDBCode":"CDB_S_100185","StateName":"South Dakota"},"geometry": { "type": "Point","coordinates": [-100.35,44.01]}},{"type": "Feature", "id":198, "properties": {"SourceCode":"USCRN","StationName":"Akron A","StationCode":"CO_Akron_A_4_E","StationID":"100187","CDBCode":"CDB_S_100187","StateName":"Colorado"},"geometry": { "type": "Point","coordinates": [-103.14,40.15]}},{"type": "Feature", "id":199, "properties": {"SourceCode":"USCRN","StationName":"Fallbrook","StationCode":"CA_Fallbrook_5_NE","StationID":"100089","CDBCode":"CDB_S_100089","StateName":"California"},"geometry": { "type": "Point","coordinates": [-117.19,33.43]}},{"type": "Feature", "id":200, "properties": {"SourceCode":"USCRN","StationName":"Heber","StationCode":"AZ_Heber_3_SE","StationID":"100104","CDBCode":"CDB_S_100104","StateName":"Arizona"},"geometry": { "type": "Point","coordinates": [-110.56,34.39]}},{"type": "Feature", "id":201, "properties": {"SourceCode":"USCRN","StationName":"Milford","StationCode":"UT_Milford_42_WNW","StationID":"100105","CDBCode":"CDB_S_100105","StateName":"Utah"},"geometry": { "type": "Point","coordinates": [-113.75,38.59]}},{"type": "Feature", "id":202, "properties": {"SourceCode":"USCRN","StationName":"Manhattan","StationCode":"KS_Manhattan_6_SSW","StationID":"100123","CDBCode":"CDB_S_100123","StateName":"Kansas"},"geometry": { "type": "Point","coordinates": [-96.6,39.1]}},{"type": "Feature", "id":203, "properties": {"SourceCode":"USCRN","StationName":"Durham","StationCode":"NH_Durham_2_N","StationID":"100124","CDBCode":"CDB_S_100124","StateName":"New Hampshire"},"geometry": { "type": "Point","coordinates": [-70.92,43.17]}},{"type": "Feature", "id":204, "properties": {"SourceCode":"USCRN","StationName":"Lincoln","StationCode":"NE_Lincoln_8_ENE","StationID":"100194","CDBCode":"CDB_S_100194","StateName":"Nebraska"},"geometry": { "type": "Point","coordinates": [-96.56,40.84]}},{"type": "Feature", "id":205, "properties": {"SourceCode":"USCRN","StationName":"Ramah","StationCode":"NM_Ramah_9_SE","StationID":"100067","CDBCode":"CDB_S_100067","StateName":"New Mexico"},"geometry": { "type": "Point","coordinates": [-108.36,35.04]}},{"type": "Feature", "id":206, "properties": {"SourceCode":"USCRN","StationName":"Cameron","StationCode":"AZ_Cameron_25_SSE","StationID":"100094","CDBCode":"CDB_S_100094","StateName":"Arizona"},"geometry": { "type": "Point","coordinates": [-111.34,35.5]}},{"type": "Feature", "id":207, "properties": {"SourceCode":"USCRN","StationName":"Des Moines","StationCode":"IA_Des_Moines_17_E","StationID":"100133","CDBCode":"CDB_S_100133","StateName":"Iowa"},"geometry": { "type": "Point","coordinates": [-93.28,41.55]}},{"type": "Feature", "id":208, "properties": {"SourceCode":"USCRN","StationName":"Tok","StationCode":"AK_Tok_70_SE","StationID":"100196","CDBCode":"CDB_S_100196","StateName":"Alaska"},"geometry": { "type": "Point","coordinates": [-141.2,62.73]}},{"type": "Feature", "id":209, "properties": {"SourceCode":"USCRN","StationName":"Colorado Springs","StationCode":"CO_Colorado_Springs_23_NW","StationID":"100065","CDBCode":"CDB_S_100065","StateName":"Colorado"},"geometry": { "type": "Point","coordinates": [-105.08,39.08]}},{"type": "Feature", "id":210, "properties": {"SourceCode":"USCRN","StationName":"Page","StationCode":"AZ_Page_9_WSW","StationID":"100098","CDBCode":"CDB_S_100098","StateName":"Arizona"},"geometry": { "type": "Point","coordinates": [-111.6,36.86]}},{"type": "Feature", "id":211, "properties": {"SourceCode":"USCRN","StationName":"Delta","StationCode":"UT_Delta_4_NE","StationID":"100099","CDBCode":"CDB_S_100099","StateName":"Utah"},"geometry": { "type": "Point","coordinates": [-112.5,39.38]}},{"type": "Feature", "id":212, "properties": {"SourceCode":"USCRN","StationName":"Goodwell","StationCode":"OK_Goodwell_2_SE","StationID":"100112","CDBCode":"CDB_S_100112","StateName":"Oklahoma"},"geometry": { "type": "Point","coordinates": [-101.6,36.56]}},{"type": "Feature", "id":213, "properties": {"SourceCode":"USCRN","StationName":"Fredonia","StationCode":"AZ_Fredonia_7_SSE","StationID":"100113","CDBCode":"CDB_S_100113","StateName":"Arizona"},"geometry": { "type": "Point","coordinates": [-112.45,36.85]}},{"type": "Feature", "id":214, "properties": {"SourceCode":"USCRN","StationName":"Meadview","StationCode":"AZ_Meadview_7_N","StationID":"100114","CDBCode":"CDB_S_100114","StateName":"Arizona"},"geometry": { "type": "Point","coordinates": [-114.04,36.09]}},{"type": "Feature", "id":215, "properties": {"SourceCode":"USCRN","StationName":"Beaver","StationCode":"UT_Beaver_15_E","StationID":"100115","CDBCode":"CDB_S_100115","StateName":"Utah"},"geometry": { "type": "Point","coordinates": [-112.37,38.27]}},{"type": "Feature", "id":216, "properties": {"SourceCode":"USCRN","StationName":"Eagle","StationCode":"CO_Eagle_13_SSE","StationID":"100009","CDBCode":"CDB_S_100009","StateName":"Colorado"},"geometry": { "type": "Point","coordinates": [-106.73,39.48]}},{"type": "Feature", "id":217, "properties": {"SourceCode":"USCRN","StationName":"Northgate","StationCode":"ND_Northgate_5_ESE","StationID":"100184","CDBCode":"CDB_S_100184","StateName":"North Dakota"},"geometry": { "type": "Point","coordinates": [-102.17,48.96]}},{"type": "Feature", "id":218, "properties": {"SourceCode":"USCRN","StationName":"Sundance","StationCode":"WY_Sundance_8_NNW","StationID":"100186","CDBCode":"CDB_S_100186","StateName":"Wyoming"},"geometry": { "type": "Point","coordinates": [-104.43,44.51]}},{"type": "Feature", "id":219, "properties": {"SourceCode":"USCRN","StationName":"Lincoln","StationCode":"NE_Lincoln_11_SW","StationID":"100195","CDBCode":"CDB_S_100195","StateName":"Nebraska"},"geometry": { "type": "Point","coordinates": [-96.85,40.69]}},{"type": "Feature", "id":220, "properties": {"SourceCode":"USCRN","StationName":"Troy","StationCode":"AL_Troy_2_W","StationID":"100041","CDBCode":"CDB_S_100041","StateName":"Alabama"},"geometry": { "type": "Point","coordinates": [-86,31.79]}},{"type": "Feature", "id":221, "properties": {"SourceCode":"USCRN","StationName":"Clovis","StationCode":"NM_Clovis_7_N","StationID":"100066","CDBCode":"CDB_S_100066","StateName":"New Mexico"},"geometry": { "type": "Point","coordinates": [-103.17,34.51]}},{"type": "Feature", "id":222, "properties": {"SourceCode":"USCRN","StationName":"Monticello","StationCode":"UT_Monticello_24_NW","StationID":"100068","CDBCode":"CDB_S_100068","StateName":"Utah"},"geometry": { "type": "Point","coordinates": [-109.61,38.14]}},{"type": "Feature", "id":223, "properties": {"SourceCode":"USCRN","StationName":"Ajo","StationCode":"AZ_Ajo_29_S","StationID":"100102","CDBCode":"CDB_S_100102","StateName":"Arizona"},"geometry": { "type": "Point","coordinates": [-112.8,31.94]}}]}