{"type":"FeatureCollection","features": [{"type": "Feature", "id":0, "properties": {"SourceCode":"CDIAC","StationName":"ALGONA 3 W","StationCode":"130133","StationID":"101215","CDBCode":"CDB_S_101215","StateName":"Iowa"},"geometry": { "type": "Point","coordinates": [-94.3053,43.0683]}},{"type": "Feature", "id":1, "properties": {"SourceCode":"CDIAC","StationName":"BELLE PLAINE","StationCode":"130600","StationID":"101216","CDBCode":"CDB_S_101216","StateName":"Iowa"},"geometry": { "type": "Point","coordinates": [-92.2764,41.8814]}},{"type": "Feature", "id":2, "properties": {"SourceCode":"CDIAC","StationName":"CHARLES CITY","StationCode":"131402","StationID":"101217","CDBCode":"CDB_S_101217","StateName":"Iowa"},"geometry": { "type": "Point","coordinates": [-92.6714,43.0775]}},{"type": "Feature", "id":3, "properties": {"SourceCode":"CDIAC","StationName":"ROCK RAPIDS","StationCode":"137147","StationID":"101232","CDBCode":"CDB_S_101232","StateName":"Iowa"},"geometry": { "type": "Point","coordinates": [-96.1686,43.43]}},{"type": "Feature", "id":4, "properties": {"SourceCode":"CDIAC","StationName":"ROCKWELL CITY","StationCode":"137161","StationID":"101233","CDBCode":"CDB_S_101233","StateName":"Iowa"},"geometry": { "type": "Point","coordinates": [-94.6292,42.3969]}},{"type": "Feature", "id":5, "properties": {"SourceCode":"CDIAC","StationName":"AMITE","StationCode":"160205","StationID":"101282","CDBCode":"CDB_S_101282","StateName":"Louisiana"},"geometry": { "type": "Point","coordinates": [-90.525,30.7094]}},{"type": "Feature", "id":6, "properties": {"SourceCode":"CDIAC","StationName":"BUNKIE","StationCode":"161287","StationID":"101285","CDBCode":"CDB_S_101285","StateName":"Louisiana"},"geometry": { "type": "Point","coordinates": [-92.1786,30.9594]}},{"type": "Feature", "id":7, "properties": {"SourceCode":"CDIAC","StationName":"ACADIA NP","StationCode":"170100","StationID":"101299","CDBCode":"CDB_S_101299","StateName":"Maine"},"geometry": { "type": "Point","coordinates": [-68.2592,44.3739]}},{"type": "Feature", "id":8, "properties": {"SourceCode":"CDIAC","StationName":"GLENN DALE BELL STN","StationCode":"183675","StationID":"101316","CDBCode":"CDB_S_101316","StateName":"Maryland"},"geometry": { "type": "Point","coordinates": [-76.8042,38.9689]}},{"type": "Feature", "id":9, "properties": {"SourceCode":"CDIAC","StationName":"LAUREL 3 W","StationCode":"185111","StationID":"101317","CDBCode":"CDB_S_101317","StateName":"Maryland"},"geometry": { "type": "Point","coordinates": [-76.9003,39.0847]}},{"type": "Feature", "id":10, "properties": {"SourceCode":"CDIAC","StationName":"AIKEN 5SE","StationCode":"380074","StationID":"101850","CDBCode":"CDB_S_101850","StateName":"South Carolina"},"geometry": { "type": "Point","coordinates": [-81.6958,33.4925]}},{"type": "Feature", "id":11, "properties": {"SourceCode":"CDIAC","StationName":"LAURENS","StationCode":"385017","StationID":"101867","CDBCode":"CDB_S_101867","StateName":"South Carolina"},"geometry": { "type": "Point","coordinates": [-82.0219,34.4989]}},{"type": "Feature", "id":12, "properties": {"SourceCode":"CDIAC","StationName":"LITTLE MTN","StationCode":"385200","StationID":"101868","CDBCode":"CDB_S_101868","StateName":"South Carolina"},"geometry": { "type": "Point","coordinates": [-81.415,34.1942]}},{"type": "Feature", "id":13, "properties": {"SourceCode":"CDIAC","StationName":"NEWBERRY","StationCode":"386209","StationID":"101869","CDBCode":"CDB_S_101869","StateName":"South Carolina"},"geometry": { "type": "Point","coordinates": [-81.6236,34.2978]}},{"type": "Feature", "id":14, "properties": {"SourceCode":"CDIAC","StationName":"HART 3 WSW","StationCode":"203632","StationID":"101350","CDBCode":"CDB_S_101350","StateName":"Michigan"},"geometry": { "type": "Point","coordinates": [-86.4239,43.6747]}},{"type": "Feature", "id":15, "properties": {"SourceCode":"CDIAC","StationName":"HILLSDALE","StationCode":"203823","StationID":"101351","CDBCode":"CDB_S_101351","StateName":"Michigan"},"geometry": { "type": "Point","coordinates": [-84.6411,41.9353]}},{"type": "Feature", "id":16, "properties": {"SourceCode":"CDIAC","StationName":"IRON MT KINGSFORD WWTP","StationCode":"204090","StationID":"101352","CDBCode":"CDB_S_101352","StateName":"Michigan"},"geometry": { "type": "Point","coordinates": [-88.0842,45.7858]}},{"type": "Feature", "id":17, "properties": {"SourceCode":"CDIAC","StationName":"CLOQUET","StationCode":"211630","StationID":"101368","CDBCode":"CDB_S_101368","StateName":"Minnesota"},"geometry": { "type": "Point","coordinates": [-92.5253,46.7047]}},{"type": "Feature", "id":18, "properties": {"SourceCode":"CDIAC","StationName":"DETROIT LAKES 1 NNE","StationCode":"212142","StationID":"101369","CDBCode":"CDB_S_101369","StateName":"Minnesota"},"geometry": { "type": "Point","coordinates": [-95.8372,46.8372]}},{"type": "Feature", "id":19, "properties": {"SourceCode":"CDIAC","StationName":"CANTON 4N","StationCode":"221389","StationID":"101400","CDBCode":"CDB_S_101400","StateName":"Mississippi"},"geometry": { "type": "Point","coordinates": [-90.0361,32.6714]}},{"type": "Feature", "id":20, "properties": {"SourceCode":"CDIAC","StationName":"CLARKSDALE","StationCode":"221707","StationID":"101401","CDBCode":"CDB_S_101401","StateName":"Mississippi"},"geometry": { "type": "Point","coordinates": [-90.5572,34.1864]}},{"type": "Feature", "id":21, "properties": {"SourceCode":"CDIAC","StationName":"COLUMBIA","StationCode":"221865","StationID":"101402","CDBCode":"CDB_S_101402","StateName":"Mississippi"},"geometry": { "type": "Point","coordinates": [-89.8361,31.2503]}},{"type": "Feature", "id":22, "properties": {"SourceCode":"CDIAC","StationName":"FARMINGTON","StationCode":"232809","StationID":"101435","CDBCode":"CDB_S_101435","StateName":"Missouri"},"geometry": { "type": "Point","coordinates": [-90.4103,37.7922]}},{"type": "Feature", "id":23, "properties": {"SourceCode":"CDIAC","StationName":"JEFFERSON CITY WTP","StationCode":"234271","StationID":"101436","CDBCode":"CDB_S_101436","StateName":"Missouri"},"geometry": { "type": "Point","coordinates": [-92.1825,38.585]}},{"type": "Feature", "id":24, "properties": {"SourceCode":"CDIAC","StationName":"FT ASSINNIBOINE","StationCode":"243110","StationID":"101467","CDBCode":"CDB_S_101467","StateName":"Montana"},"geometry": { "type": "Point","coordinates": [-109.7972,48.4983]}},{"type": "Feature", "id":25, "properties": {"SourceCode":"CDIAC","StationName":"FORTINE 1 N","StationCode":"243139","StationID":"101468","CDBCode":"CDB_S_101468","StateName":"Montana"},"geometry": { "type": "Point","coordinates": [-114.8997,48.7783]}},{"type": "Feature", "id":26, "properties": {"SourceCode":"CDIAC","StationName":"DUPREE","StationCode":"392429","StationID":"101885","CDBCode":"CDB_S_101885","StateName":"South Dakota"},"geometry": { "type": "Point","coordinates": [-101.5992,45.0481]}},{"type": "Feature", "id":27, "properties": {"SourceCode":"CDIAC","StationName":"VERMILLION 2 SE","StationCode":"398622","StationID":"101901","CDBCode":"CDB_S_101901","StateName":"South Dakota"},"geometry": { "type": "Point","coordinates": [-96.9194,42.7625]}},{"type": "Feature", "id":28, "properties": {"SourceCode":"CDIAC","StationName":"WATERTOWN RGNL AP","StationCode":"398932","StationID":"101902","CDBCode":"CDB_S_101902","StateName":"South Dakota"},"geometry": { "type": "Point","coordinates": [-97.1494,44.9047]}},{"type": "Feature", "id":29, "properties": {"SourceCode":"CDIAC","StationName":"WOOD","StationCode":"399442","StationID":"101903","CDBCode":"CDB_S_101903","StateName":"South Dakota"},"geometry": { "type": "Point","coordinates": [-100.4794,43.4978]}},{"type": "Feature", "id":30, "properties": {"SourceCode":"CDIAC","StationName":"WAYNESBORO","StationCode":"409502","StationID":"101918","CDBCode":"CDB_S_101918","StateName":"Tennessee"},"geometry": { "type": "Point","coordinates": [-87.7592,35.3042]}},{"type": "Feature", "id":31, "properties": {"SourceCode":"CDIAC","StationName":"ALBANY","StationCode":"410120","StationID":"101919","CDBCode":"CDB_S_101919","StateName":"Texas"},"geometry": { "type": "Point","coordinates": [-99.3017,32.7294]}},{"type": "Feature", "id":32, "properties": {"SourceCode":"CDIAC","StationName":"CROSBYTON","StationCode":"412121","StationID":"101934","CDBCode":"CDB_S_101934","StateName":"Texas"},"geometry": { "type": "Point","coordinates": [-101.245,33.6517]}},{"type": "Feature", "id":33, "properties": {"SourceCode":"CDIAC","StationName":"DANEVANG 1 W","StationCode":"412266","StationID":"101935","CDBCode":"CDB_S_101935","StateName":"Texas"},"geometry": { "type": "Point","coordinates": [-96.2319,29.0567]}},{"type": "Feature", "id":34, "properties": {"SourceCode":"CDIAC","StationName":"THOMPSON","StationCode":"428705","StationID":"102001","CDBCode":"CDB_S_102001","StateName":"Utah"},"geometry": { "type": "Point","coordinates": [-109.7167,38.9667]}},{"type": "Feature", "id":35, "properties": {"SourceCode":"CDIAC","StationName":"HOLBROOK","StationCode":"024089","StationID":"100948","CDBCode":"CDB_S_100948","StateName":"Arizona"},"geometry": { "type": "Point","coordinates": [-110.1544,34.9094]}},{"type": "Feature", "id":36, "properties": {"SourceCode":"CDIAC","StationName":"KINGMAN #2","StationCode":"024645","StationID":"100949","CDBCode":"CDB_S_100949","StateName":"Arizona"},"geometry": { "type": "Point","coordinates": [-114.0167,35.2]}},{"type": "Feature", "id":37, "properties": {"SourceCode":"CDIAC","StationName":"INDIO FIRE STN","StationCode":"044259","StationID":"101000","CDBCode":"CDB_S_101000","StateName":"California"},"geometry": { "type": "Point","coordinates": [-116.2153,33.7086]}},{"type": "Feature", "id":38, "properties": {"SourceCode":"CDIAC","StationName":"LAKE SPAULDING","StationCode":"044713","StationID":"101001","CDBCode":"CDB_S_101001","StateName":"California"},"geometry": { "type": "Point","coordinates": [-120.6392,39.3183]}},{"type": "Feature", "id":39, "properties": {"SourceCode":"CDIAC","StationName":"REDDING MUNI AP","StationCode":"047304","StationID":"101018","CDBCode":"CDB_S_101018","StateName":"California"},"geometry": { "type": "Point","coordinates": [-122.2986,40.5175]}},{"type": "Feature", "id":40, "properties": {"SourceCode":"CDIAC","StationName":"YOSEMITE PARK HQ","StationCode":"049855","StationID":"101033","CDBCode":"CDB_S_101033","StateName":"California"},"geometry": { "type": "Point","coordinates": [-119.5897,37.75]}},{"type": "Feature", "id":41, "properties": {"SourceCode":"CDIAC","StationName":"YREKA","StationCode":"049866","StationID":"101034","CDBCode":"CDB_S_101034","StateName":"California"},"geometry": { "type": "Point","coordinates": [-122.6408,41.7036]}},{"type": "Feature", "id":42, "properties": {"SourceCode":"CDIAC","StationName":"BOULDER","StationCode":"050848","StationID":"101035","CDBCode":"CDB_S_101035","StateName":"Colorado"},"geometry": { "type": "Point","coordinates": [-105.2667,39.9919]}},{"type": "Feature", "id":43, "properties": {"SourceCode":"CDIAC","StationName":"NEW HAMPTON","StationCode":"135952","StationID":"101231","CDBCode":"CDB_S_101231","StateName":"Iowa"},"geometry": { "type": "Point","coordinates": [-92.3122,43.0453]}},{"type": "Feature", "id":44, "properties": {"SourceCode":"CDIAC","StationName":"MCPHERSON","StationCode":"145152","StationID":"101256","CDBCode":"CDB_S_101256","StateName":"Kansas"},"geometry": { "type": "Point","coordinates": [-97.6097,38.3772]}},{"type": "Feature", "id":45, "properties": {"SourceCode":"CDIAC","StationName":"ALEXANDRIA","StationCode":"160098","StationID":"101281","CDBCode":"CDB_S_101281","StateName":"Louisiana"},"geometry": { "type": "Point","coordinates": [-92.4611,31.3206]}},{"type": "Feature", "id":46, "properties": {"SourceCode":"CDIAC","StationName":"CALHOUN RSCH STN","StationCode":"161411","StationID":"101286","CDBCode":"CDB_S_101286","StateName":"Louisiana"},"geometry": { "type": "Point","coordinates": [-92.3478,32.5133]}},{"type": "Feature", "id":47, "properties": {"SourceCode":"CDIAC","StationName":"PLAIN DEALING 4 W","StationCode":"167344","StationID":"101295","CDBCode":"CDB_S_101295","StateName":"Louisiana"},"geometry": { "type": "Point","coordinates": [-93.7981,32.9078]}},{"type": "Feature", "id":48, "properties": {"SourceCode":"CDIAC","StationName":"DENTON 2 E","StationCode":"182523","StationID":"101315","CDBCode":"CDB_S_101315","StateName":"Maryland"},"geometry": { "type": "Point","coordinates": [-75.8,38.8833]}},{"type": "Feature", "id":49, "properties": {"SourceCode":"CDIAC","StationName":"HOBART MUNI AP","StationCode":"344204","StationID":"101758","CDBCode":"CDB_S_101758","StateName":"Oklahoma"},"geometry": { "type": "Point","coordinates": [-99.0525,34.9894]}},{"type": "Feature", "id":50, "properties": {"SourceCode":"CDIAC","StationName":"KINGFISHER","StationCode":"344861","StationID":"101763","CDBCode":"CDB_S_101763","StateName":"Oklahoma"},"geometry": { "type": "Point","coordinates": [-97.9294,35.8583]}},{"type": "Feature", "id":51, "properties": {"SourceCode":"CDIAC","StationName":"TAHLEQUAH","StationCode":"348677","StationID":"101779","CDBCode":"CDB_S_101779","StateName":"Oklahoma"},"geometry": { "type": "Point","coordinates": [-94.9644,35.9369]}},{"type": "Feature", "id":52, "properties": {"SourceCode":"CDIAC","StationName":"CASCADIA","StationCode":"351433","StationID":"101788","CDBCode":"CDB_S_101788","StateName":"Oregon"},"geometry": { "type": "Point","coordinates": [-122.4811,44.3914]}},{"type": "Feature", "id":53, "properties": {"SourceCode":"CDIAC","StationName":"HEADWORKS PORTLAND WTR","StationCode":"353770","StationID":"101799","CDBCode":"CDB_S_101799","StateName":"Oregon"},"geometry": { "type": "Point","coordinates": [-122.1547,45.4486]}},{"type": "Feature", "id":54, "properties": {"SourceCode":"CDIAC","StationName":"PILOT ROCK 1 SE","StationCode":"356634","StationID":"101813","CDBCode":"CDB_S_101813","StateName":"Oregon"},"geometry": { "type": "Point","coordinates": [-118.8253,45.4756]}},{"type": "Feature", "id":55, "properties": {"SourceCode":"CDIAC","StationName":"PROSPECT 2 SW","StationCode":"356907","StationID":"101815","CDBCode":"CDB_S_101815","StateName":"Oregon"},"geometry": { "type": "Point","coordinates": [-122.5164,42.7342]}},{"type": "Feature", "id":56, "properties": {"SourceCode":"CDIAC","StationName":"WALLOWA","StationCode":"358997","StationID":"101822","CDBCode":"CDB_S_101822","StateName":"Oregon"},"geometry": { "type": "Point","coordinates": [-117.5314,45.5722]}},{"type": "Feature", "id":57, "properties": {"SourceCode":"CDIAC","StationName":"CHAMBERSBURG 1 ESE","StationCode":"361354","StationID":"101824","CDBCode":"CDB_S_101824","StateName":"Pennsylvania"},"geometry": { "type": "Point","coordinates": [-77.6394,39.9353]}},{"type": "Feature", "id":58, "properties": {"SourceCode":"CDIAC","StationName":"MONTROSE","StationCode":"365915","StationID":"101831","CDBCode":"CDB_S_101831","StateName":"Pennsylvania"},"geometry": { "type": "Point","coordinates": [-75.8583,41.8511]}},{"type": "Feature", "id":59, "properties": {"SourceCode":"CDIAC","StationName":"SANTUCK","StationCode":"387722","StationID":"101872","CDBCode":"CDB_S_101872","StateName":"South Carolina"},"geometry": { "type": "Point","coordinates": [-81.5206,34.635]}},{"type": "Feature", "id":60, "properties": {"SourceCode":"CDIAC","StationName":"KALAMAZOO STATE HOSP","StationCode":"204244","StationID":"101354","CDBCode":"CDB_S_101354","StateName":"Michigan"},"geometry": { "type": "Point","coordinates": [-85.6,42.2833]}},{"type": "Feature", "id":61, "properties": {"SourceCode":"CDIAC","StationName":"FARMINGTON 3 NW","StationCode":"212737","StationID":"101372","CDBCode":"CDB_S_101372","StateName":"Minnesota"},"geometry": { "type": "Point","coordinates": [-93.17,44.6697]}},{"type": "Feature", "id":62, "properties": {"SourceCode":"CDIAC","StationName":"ST PETER","StationCode":"217405","StationID":"101390","CDBCode":"CDB_S_101390","StateName":"Minnesota"},"geometry": { "type": "Point","coordinates": [-93.9656,44.3222]}},{"type": "Feature", "id":63, "properties": {"SourceCode":"CDIAC","StationName":"CORINTH 7 SW","StationCode":"221962","StationID":"101404","CDBCode":"CDB_S_101404","StateName":"Mississippi"},"geometry": { "type": "Point","coordinates": [-88.6178,34.8792]}},{"type": "Feature", "id":64, "properties": {"SourceCode":"CDIAC","StationName":"BOWLING GREEN 1 E","StationCode":"230856","StationID":"101429","CDBCode":"CDB_S_101429","StateName":"Missouri"},"geometry": { "type": "Point","coordinates": [-91.1711,39.3447]}},{"type": "Feature", "id":65, "properties": {"SourceCode":"CDIAC","StationName":"ROLLA UNI OF MISSOURI","StationCode":"237263","StationID":"101447","CDBCode":"CDB_S_101447","StateName":"Missouri"},"geometry": { "type": "Point","coordinates": [-91.7758,37.9572]}},{"type": "Feature", "id":66, "properties": {"SourceCode":"CDIAC","StationName":"CLARK","StationCode":"391739","StationID":"101883","CDBCode":"CDB_S_101883","StateName":"South Dakota"},"geometry": { "type": "Point","coordinates": [-97.7325,44.8817]}},{"type": "Feature", "id":67, "properties": {"SourceCode":"CDIAC","StationName":"MURDO","StationCode":"395891","StationID":"101897","CDBCode":"CDB_S_101897","StateName":"South Dakota"},"geometry": { "type": "Point","coordinates": [-100.7078,43.8894]}},{"type": "Feature", "id":68, "properties": {"SourceCode":"CDIAC","StationName":"PIERRE RGNL AP","StationCode":"396597","StationID":"101899","CDBCode":"CDB_S_101899","StateName":"South Dakota"},"geometry": { "type": "Point","coordinates": [-100.2856,44.3814]}},{"type": "Feature", "id":69, "properties": {"SourceCode":"CDIAC","StationName":"BEEVILLE 5 NE","StationCode":"410639","StationID":"101924","CDBCode":"CDB_S_101924","StateName":"Texas"},"geometry": { "type": "Point","coordinates": [-97.7061,28.4575]}},{"type": "Feature", "id":70, "properties": {"SourceCode":"CDIAC","StationName":"PANGUITCH","StationCode":"426601","StationID":"101992","CDBCode":"CDB_S_101992","StateName":"Utah"},"geometry": { "type": "Point","coordinates": [-112.4419,37.8239]}},{"type": "Feature", "id":71, "properties": {"SourceCode":"CDIAC","StationName":"SCIPIO","StationCode":"427714","StationID":"101997","CDBCode":"CDB_S_101997","StateName":"Utah"},"geometry": { "type": "Point","coordinates": [-112.1067,39.2453]}},{"type": "Feature", "id":72, "properties": {"SourceCode":"CDIAC","StationName":"SAINT JOHNSBURY","StationCode":"437054","StationID":"102013","CDBCode":"CDB_S_102013","StateName":"Vermont"},"geometry": { "type": "Point","coordinates": [-72.0194,44.42]}},{"type": "Feature", "id":73, "properties": {"SourceCode":"CDIAC","StationName":"SOUTH LINCOLN","StationCode":"437612","StationID":"102015","CDBCode":"CDB_S_102015","StateName":"Vermont"},"geometry": { "type": "Point","coordinates": [-72.9736,44.0725]}},{"type": "Feature", "id":74, "properties": {"SourceCode":"CDIAC","StationName":"GRAND CANYON NP 2","StationCode":"023596","StationID":"100947","CDBCode":"CDB_S_100947","StateName":"Arizona"},"geometry": { "type": "Point","coordinates": [-112.1503,36.0528]}},{"type": "Feature", "id":75, "properties": {"SourceCode":"CDIAC","StationName":"CANON CITY","StationCode":"051294","StationID":"101036","CDBCode":"CDB_S_101036","StateName":"Colorado"},"geometry": { "type": "Point","coordinates": [-105.2256,38.46]}},{"type": "Feature", "id":76, "properties": {"SourceCode":"CDIAC","StationName":"TELLURIDE 4WNW","StationCode":"058204","StationID":"101056","CDBCode":"CDB_S_101056","StateName":"Colorado"},"geometry": { "type": "Point","coordinates": [-107.8733,37.9492]}},{"type": "Feature", "id":77, "properties": {"SourceCode":"CDIAC","StationName":"MALTA 7 E","StationCode":"245338","StationID":"101481","CDBCode":"CDB_S_101481","StateName":"Montana"},"geometry": { "type": "Point","coordinates": [-107.7286,48.3939]}},{"type": "Feature", "id":78, "properties": {"SourceCode":"CDIAC","StationName":"VIRGINIA CITY","StationCode":"248597","StationID":"101495","CDBCode":"CDB_S_101495","StateName":"Montana"},"geometry": { "type": "Point","coordinates": [-111.9481,45.2925]}},{"type": "Feature", "id":79, "properties": {"SourceCode":"CDIAC","StationName":"LODGEPOLE","StationCode":"254900","StationID":"101524","CDBCode":"CDB_S_101524","StateName":"Nebraska"},"geometry": { "type": "Point","coordinates": [-102.6361,41.1489]}},{"type": "Feature", "id":80, "properties": {"SourceCode":"CDIAC","StationName":"SYRACUSE","StationCode":"258395","StationID":"101538","CDBCode":"CDB_S_101538","StateName":"Nebraska"},"geometry": { "type": "Point","coordinates": [-96.1886,40.6825]}},{"type": "Feature", "id":81, "properties": {"SourceCode":"CDIAC","StationName":"TEKAMAH","StationCode":"258480","StationID":"101540","CDBCode":"CDB_S_101540","StateName":"Nebraska"},"geometry": { "type": "Point","coordinates": [-96.2264,41.7861]}},{"type": "Feature", "id":82, "properties": {"SourceCode":"CDIAC","StationName":"BATTLE MOUNTAIN 4SE","StationCode":"260691","StationID":"101545","CDBCode":"CDB_S_101545","StateName":"Nevada"},"geometry": { "type": "Point","coordinates": [-116.8917,40.6117]}},{"type": "Feature", "id":83, "properties": {"SourceCode":"CDIAC","StationName":"ELKO RGNL AP","StationCode":"262573","StationID":"101547","CDBCode":"CDB_S_101547","StateName":"Nevada"},"geometry": { "type": "Point","coordinates": [-115.7886,40.8289]}},{"type": "Feature", "id":84, "properties": {"SourceCode":"CDIAC","StationName":"WINNEMUCCA AP","StationCode":"269171","StationID":"101556","CDBCode":"CDB_S_101556","StateName":"Nevada"},"geometry": { "type": "Point","coordinates": [-117.8081,40.9017]}},{"type": "Feature", "id":85, "properties": {"SourceCode":"CDIAC","StationName":"BELVIDERE BRG","StationCode":"280734","StationID":"101563","CDBCode":"CDB_S_101563","StateName":"New Jersey"},"geometry": { "type": "Point","coordinates": [-75.0836,40.8292]}},{"type": "Feature", "id":86, "properties": {"SourceCode":"CDIAC","StationName":"ANTHONY","StationCode":"140264","StationID":"101237","CDBCode":"CDB_S_101237","StateName":"Kansas"},"geometry": { "type": "Point","coordinates": [-98.0283,37.155]}},{"type": "Feature", "id":87, "properties": {"SourceCode":"CDIAC","StationName":"OTTAWA","StationCode":"146128","StationID":"101262","CDBCode":"CDB_S_101262","StateName":"Kansas"},"geometry": { "type": "Point","coordinates": [-95.2808,38.6133]}},{"type": "Feature", "id":88, "properties": {"SourceCode":"CDIAC","StationName":"OWINGS FERRY LANDING","StationCode":"186770","StationID":"101321","CDBCode":"CDB_S_101321","StateName":"Maryland"},"geometry": { "type": "Point","coordinates": [-76.6667,38.6833]}},{"type": "Feature", "id":89, "properties": {"SourceCode":"CDIAC","StationName":"ROYAL OAK 2 SSW","StationCode":"187806","StationID":"101323","CDBCode":"CDB_S_101323","StateName":"Maryland"},"geometry": { "type": "Point","coordinates": [-76.1897,38.7144]}},{"type": "Feature", "id":90, "properties": {"SourceCode":"CDIAC","StationName":"ADRIAN 2 NNE","StationCode":"200032","StationID":"101339","CDBCode":"CDB_S_101339","StateName":"Michigan"},"geometry": { "type": "Point","coordinates": [-84.0158,41.9164]}},{"type": "Feature", "id":91, "properties": {"SourceCode":"CDIAC","StationName":"CHEBOYGAN","StationCode":"201492","StationID":"101346","CDBCode":"CDB_S_101346","StateName":"Michigan"},"geometry": { "type": "Point","coordinates": [-84.4725,45.6528]}},{"type": "Feature", "id":92, "properties": {"SourceCode":"CDIAC","StationName":"CHEROKEE","StationCode":"341724","StationID":"101748","CDBCode":"CDB_S_101748","StateName":"Oklahoma"},"geometry": { "type": "Point","coordinates": [-98.3583,36.7747]}},{"type": "Feature", "id":93, "properties": {"SourceCode":"CDIAC","StationName":"MEEKER 5 W","StationCode":"345779","StationID":"101766","CDBCode":"CDB_S_101766","StateName":"Oklahoma"},"geometry": { "type": "Point","coordinates": [-96.9767,35.505]}},{"type": "Feature", "id":94, "properties": {"SourceCode":"CDIAC","StationName":"WEBBERS FALLS 5 WSW","StationCode":"349445","StationID":"101782","CDBCode":"CDB_S_101782","StateName":"Oklahoma"},"geometry": { "type": "Point","coordinates": [-95.2039,35.4814]}},{"type": "Feature", "id":95, "properties": {"SourceCode":"CDIAC","StationName":"RIDDLE","StationCode":"357169","StationID":"101816","CDBCode":"CDB_S_101816","StateName":"Oregon"},"geometry": { "type": "Point","coordinates": [-123.3572,42.9506]}},{"type": "Feature", "id":96, "properties": {"SourceCode":"CDIAC","StationName":"STROUDSBURG","StationCode":"368596","StationID":"101839","CDBCode":"CDB_S_101839","StateName":"Pennsylvania"},"geometry": { "type": "Point","coordinates": [-75.1906,41.0125]}},{"type": "Feature", "id":97, "properties": {"SourceCode":"CDIAC","StationName":"GREENWOOD","StationCode":"383754","StationID":"101864","CDBCode":"CDB_S_101864","StateName":"South Carolina"},"geometry": { "type": "Point","coordinates": [-82.1711,34.1997]}},{"type": "Feature", "id":98, "properties": {"SourceCode":"CDIAC","StationName":"KINGSTREE","StationCode":"384753","StationID":"101866","CDBCode":"CDB_S_101866","StateName":"South Carolina"},"geometry": { "type": "Point","coordinates": [-79.8283,33.6775]}},{"type": "Feature", "id":99, "properties": {"SourceCode":"CDIAC","StationName":"TROY","StationCode":"018323","StationID":"100937","CDBCode":"CDB_S_100937","StateName":"Alabama"},"geometry": { "type": "Point","coordinates": [-85.9722,31.8075]}},{"type": "Feature", "id":100, "properties": {"SourceCode":"CDIAC","StationName":"EAST TAWAS","StationCode":"202423","StationID":"101348","CDBCode":"CDB_S_101348","StateName":"Michigan"},"geometry": { "type": "Point","coordinates": [-83.5036,44.2839]}},{"type": "Feature", "id":101, "properties": {"SourceCode":"CDIAC","StationName":"ALBERT LEA 3 SE","StationCode":"210075","StationID":"101364","CDBCode":"CDB_S_101364","StateName":"Minnesota"},"geometry": { "type": "Point","coordinates": [-93.3019,43.6064]}},{"type": "Feature", "id":102, "properties": {"SourceCode":"CDIAC","StationName":"MARCELL 5NE","StationCode":"215175","StationID":"101378","CDBCode":"CDB_S_101378","StateName":"Minnesota"},"geometry": { "type": "Point","coordinates": [-93.6522,47.6308]}},{"type": "Feature", "id":103, "properties": {"SourceCode":"CDIAC","StationName":"LEES SUMMIT REED WR","StationCode":"234850","StationID":"101439","CDBCode":"CDB_S_101439","StateName":"Missouri"},"geometry": { "type": "Point","coordinates": [-94.3358,38.8803]}},{"type": "Feature", "id":104, "properties": {"SourceCode":"CDIAC","StationName":"NEWPORT 1 NW","StationCode":"406534","StationID":"101914","CDBCode":"CDB_S_101914","StateName":"Tennessee"},"geometry": { "type": "Point","coordinates": [-83.2008,35.9833]}},{"type": "Feature", "id":105, "properties": {"SourceCode":"CDIAC","StationName":"ALPINE","StationCode":"410174","StationID":"101921","CDBCode":"CDB_S_101921","StateName":"Texas"},"geometry": { "type": "Point","coordinates": [-103.66,30.3764]}},{"type": "Feature", "id":106, "properties": {"SourceCode":"CDIAC","StationName":"CATARINA","StationCode":"411528","StationID":"101930","CDBCode":"CDB_S_101930","StateName":"Texas"},"geometry": { "type": "Point","coordinates": [-99.6328,28.3392]}},{"type": "Feature", "id":107, "properties": {"SourceCode":"CDIAC","StationName":"ENCINAL","StationCode":"412906","StationID":"101939","CDBCode":"CDB_S_101939","StateName":"Texas"},"geometry": { "type": "Point","coordinates": [-99.3508,28.0239]}},{"type": "Feature", "id":108, "properties": {"SourceCode":"CDIAC","StationName":"LIBERTY","StationCode":"415196","StationID":"101948","CDBCode":"CDB_S_101948","StateName":"Texas"},"geometry": { "type": "Point","coordinates": [-94.795,30.0592]}},{"type": "Feature", "id":109, "properties": {"SourceCode":"CDIAC","StationName":"TEMPLE","StationCode":"418910","StationID":"101966","CDBCode":"CDB_S_101966","StateName":"Texas"},"geometry": { "type": "Point","coordinates": [-97.3183,31.0781]}},{"type": "Feature", "id":110, "properties": {"SourceCode":"CDIAC","StationName":"DUCHESNE","StationCode":"422253","StationID":"101973","CDBCode":"CDB_S_101973","StateName":"Utah"},"geometry": { "type": "Point","coordinates": [-110.395,40.1678]}},{"type": "Feature", "id":111, "properties": {"SourceCode":"CDIAC","StationName":"HEBER","StationCode":"423809","StationID":"101980","CDBCode":"CDB_S_101980","StateName":"Utah"},"geometry": { "type": "Point","coordinates": [-111.4261,40.4917]}},{"type": "Feature", "id":112, "properties": {"SourceCode":"CDIAC","StationName":"LAKETOWN","StationCode":"424856","StationID":"101982","CDBCode":"CDB_S_101982","StateName":"Utah"},"geometry": { "type": "Point","coordinates": [-111.3208,41.825]}},{"type": "Feature", "id":113, "properties": {"SourceCode":"CDIAC","StationName":"MORGAN POWER & LIGHT","StationCode":"425826","StationID":"101989","CDBCode":"CDB_S_101989","StateName":"Utah"},"geometry": { "type": "Point","coordinates": [-111.6722,41.0428]}},{"type": "Feature", "id":114, "properties": {"SourceCode":"CDIAC","StationName":"ZION NP","StationCode":"429717","StationID":"102007","CDBCode":"CDB_S_102007","StateName":"Utah"},"geometry": { "type": "Point","coordinates": [-112.9842,37.2083]}},{"type": "Feature", "id":115, "properties": {"SourceCode":"CDIAC","StationName":"WHITERIVER 1 SW","StationCode":"029271","StationID":"100962","CDBCode":"CDB_S_100962","StateName":"Arizona"},"geometry": { "type": "Point","coordinates": [-109.9833,33.8169]}},{"type": "Feature", "id":116, "properties": {"SourceCode":"CDIAC","StationName":"WILLIAMS","StationCode":"029359","StationID":"100964","CDBCode":"CDB_S_100964","StateName":"Arizona"},"geometry": { "type": "Point","coordinates": [-112.1903,35.2406]}},{"type": "Feature", "id":117, "properties": {"SourceCode":"CDIAC","StationName":"EUREKA SPRINGS 3 WNW","StationCode":"032356","StationID":"100969","CDBCode":"CDB_S_100969","StateName":"Arkansas"},"geometry": { "type": "Point","coordinates": [-93.7917,36.4164]}},{"type": "Feature", "id":118, "properties": {"SourceCode":"CDIAC","StationName":"GRAVETTE","StationCode":"032930","StationID":"100971","CDBCode":"CDB_S_100971","StateName":"Arkansas"},"geometry": { "type": "Point","coordinates": [-94.4481,36.4261]}},{"type": "Feature", "id":119, "properties": {"SourceCode":"CDIAC","StationName":"PRESCOTT 2 NNW","StationCode":"035908","StationID":"100978","CDBCode":"CDB_S_100978","StateName":"Arkansas"},"geometry": { "type": "Point","coordinates": [-93.3878,33.8203]}},{"type": "Feature", "id":120, "properties": {"SourceCode":"CDIAC","StationName":"SUBIACO","StationCode":"036928","StationID":"100980","CDBCode":"CDB_S_100980","StateName":"Arkansas"},"geometry": { "type": "Point","coordinates": [-93.6369,35.3028]}},{"type": "Feature", "id":121, "properties": {"SourceCode":"CDIAC","StationName":"COLFAX","StationCode":"041912","StationID":"100987","CDBCode":"CDB_S_100987","StateName":"California"},"geometry": { "type": "Point","coordinates": [-120.9481,39.0911]}},{"type": "Feature", "id":122, "properties": {"SourceCode":"CDIAC","StationName":"DAVIS 2 WSW EXP","StationCode":"042294","StationID":"100989","CDBCode":"CDB_S_100989","StateName":"California"},"geometry": { "type": "Point","coordinates": [-121.7761,38.535]}},{"type": "Feature", "id":123, "properties": {"SourceCode":"CDIAC","StationName":"MARYSVILLE","StationCode":"045385","StationID":"101005","CDBCode":"CDB_S_101005","StateName":"California"},"geometry": { "type": "Point","coordinates": [-121.5853,39.1458]}},{"type": "Feature", "id":124, "properties": {"SourceCode":"CDIAC","StationName":"ORLAND","StationCode":"046506","StationID":"101012","CDBCode":"CDB_S_101012","StateName":"California"},"geometry": { "type": "Point","coordinates": [-122.1997,39.7458]}},{"type": "Feature", "id":125, "properties": {"SourceCode":"CDIAC","StationName":"SANTA BARBARA","StationCode":"047902","StationID":"101021","CDBCode":"CDB_S_101021","StateName":"California"},"geometry": { "type": "Point","coordinates": [-119.6844,34.4167]}},{"type": "Feature", "id":126, "properties": {"SourceCode":"CDIAC","StationName":"UKIAH","StationCode":"049122","StationID":"101028","CDBCode":"CDB_S_101028","StateName":"California"},"geometry": { "type": "Point","coordinates": [-123.2103,39.1467]}},{"type": "Feature", "id":127, "properties": {"SourceCode":"CDIAC","StationName":"STORRS","StationCode":"068138","StationID":"101062","CDBCode":"CDB_S_101062","StateName":"Connecticut"},"geometry": { "type": "Point","coordinates": [-72.2283,41.795]}},{"type": "Feature", "id":128, "properties": {"SourceCode":"CDIAC","StationName":"GREENWOOD 2NE","StationCode":"073595","StationID":"101064","CDBCode":"CDB_S_101064","StateName":"Delaware"},"geometry": { "type": "Point","coordinates": [-75.5761,38.8161]}},{"type": "Feature", "id":129, "properties": {"SourceCode":"CDIAC","StationName":"BRIDGEPORT","StationCode":"251145","StationID":"101505","CDBCode":"CDB_S_101505","StateName":"Nebraska"},"geometry": { "type": "Point","coordinates": [-103.1042,41.6675]}},{"type": "Feature", "id":130, "properties": {"SourceCode":"CDIAC","StationName":"COUNCIL GROVE LAKE","StationCode":"141867","StationID":"101242","CDBCode":"CDB_S_101242","StateName":"Kansas"},"geometry": { "type": "Point","coordinates": [-96.5097,38.6758]}},{"type": "Feature", "id":131, "properties": {"SourceCode":"CDIAC","StationName":"ELLSWORTH","StationCode":"142459","StationID":"101244","CDBCode":"CDB_S_101244","StateName":"Kansas"},"geometry": { "type": "Point","coordinates": [-98.2267,38.7278]}},{"type": "Feature", "id":132, "properties": {"SourceCode":"CDIAC","StationName":"NORTON 9SSE","StationCode":"145856","StationID":"101259","CDBCode":"CDB_S_101259","StateName":"Kansas"},"geometry": { "type": "Point","coordinates": [-99.8356,39.7408]}},{"type": "Feature", "id":133, "properties": {"SourceCode":"CDIAC","StationName":"OBERLIN","StationCode":"145906","StationID":"101260","CDBCode":"CDB_S_101260","StateName":"Kansas"},"geometry": { "type": "Point","coordinates": [-100.5331,39.8183]}},{"type": "Feature", "id":134, "properties": {"SourceCode":"CDIAC","StationName":"LAFAYETTE FCWOS","StationCode":"165026","StationID":"101293","CDBCode":"CDB_S_101293","StateName":"Louisiana"},"geometry": { "type": "Point","coordinates": [-91.9875,30.205]}},{"type": "Feature", "id":135, "properties": {"SourceCode":"CDIAC","StationName":"SALISBURY","StationCode":"188000","StationID":"101324","CDBCode":"CDB_S_101324","StateName":"Maryland"},"geometry": { "type": "Point","coordinates": [-75.5892,38.365]}},{"type": "Feature", "id":136, "properties": {"SourceCode":"CDIAC","StationName":"ALMA","StationCode":"200146","StationID":"101341","CDBCode":"CDB_S_101341","StateName":"Michigan"},"geometry": { "type": "Point","coordinates": [-84.6492,43.3864]}},{"type": "Feature", "id":137, "properties": {"SourceCode":"CDIAC","StationName":"PERRY","StationCode":"347012","StationID":"101776","CDBCode":"CDB_S_101776","StateName":"Oklahoma"},"geometry": { "type": "Point","coordinates": [-97.2897,36.2886]}},{"type": "Feature", "id":138, "properties": {"SourceCode":"CDIAC","StationName":"STILLWATER 2 W","StationCode":"348501","StationID":"101778","CDBCode":"CDB_S_101778","StateName":"Oklahoma"},"geometry": { "type": "Point","coordinates": [-97.095,36.1175]}},{"type": "Feature", "id":139, "properties": {"SourceCode":"CDIAC","StationName":"DANNER","StationCode":"352135","StationID":"101793","CDBCode":"CDB_S_101793","StateName":"Oregon"},"geometry": { "type": "Point","coordinates": [-117.3389,42.9447]}},{"type": "Feature", "id":140, "properties": {"SourceCode":"CDIAC","StationName":"DRAIN","StationCode":"352406","StationID":"101794","CDBCode":"CDB_S_101794","StateName":"Oregon"},"geometry": { "type": "Point","coordinates": [-123.3275,43.6656]}},{"type": "Feature", "id":141, "properties": {"SourceCode":"CDIAC","StationName":"NORTH BEND FCWOS","StationCode":"356073","StationID":"101811","CDBCode":"CDB_S_101811","StateName":"Oregon"},"geometry": { "type": "Point","coordinates": [-124.2436,43.4133]}},{"type": "Feature", "id":142, "properties": {"SourceCode":"CDIAC","StationName":"FRANKLIN","StationCode":"363028","StationID":"101827","CDBCode":"CDB_S_101827","StateName":"Pennsylvania"},"geometry": { "type": "Point","coordinates": [-79.8303,41.4003]}},{"type": "Feature", "id":143, "properties": {"SourceCode":"CDIAC","StationName":"WARREN","StationCode":"369298","StationID":"101842","CDBCode":"CDB_S_101842","StateName":"Pennsylvania"},"geometry": { "type": "Point","coordinates": [-79.15,41.85]}},{"type": "Feature", "id":144, "properties": {"SourceCode":"CDIAC","StationName":"WEST CHESTER 2 NW","StationCode":"369464","StationID":"101844","CDBCode":"CDB_S_101844","StateName":"Pennsylvania"},"geometry": { "type": "Point","coordinates": [-75.635,39.9708]}},{"type": "Feature", "id":145, "properties": {"SourceCode":"CDIAC","StationName":"COLUMBIA UNIV OF SC","StationCode":"381944","StationID":"101859","CDBCode":"CDB_S_101859","StateName":"South Carolina"},"geometry": { "type": "Point","coordinates": [-81.0167,33.9831]}},{"type": "Feature", "id":146, "properties": {"SourceCode":"CDIAC","StationName":"WINNSBORO","StationCode":"389327","StationID":"101876","CDBCode":"CDB_S_101876","StateName":"South Carolina"},"geometry": { "type": "Point","coordinates": [-81.0928,34.3739]}},{"type": "Feature", "id":147, "properties": {"SourceCode":"CDIAC","StationName":"BUCKEYE","StationCode":"021026","StationID":"100942","CDBCode":"CDB_S_100942","StateName":"Arizona"},"geometry": { "type": "Point","coordinates": [-112.5828,33.3761]}},{"type": "Feature", "id":148, "properties": {"SourceCode":"CDIAC","StationName":"CANYON DE CHELLY","StationCode":"021248","StationID":"100943","CDBCode":"CDB_S_100943","StateName":"Arizona"},"geometry": { "type": "Point","coordinates": [-109.5394,36.1533]}},{"type": "Feature", "id":149, "properties": {"SourceCode":"CDIAC","StationName":"MUNISING","StationCode":"205690","StationID":"101358","CDBCode":"CDB_S_101358","StateName":"Michigan"},"geometry": { "type": "Point","coordinates": [-86.6625,46.4122]}},{"type": "Feature", "id":150, "properties": {"SourceCode":"CDIAC","StationName":"ITASCA UNIV OF MINN","StationCode":"214106","StationID":"101376","CDBCode":"CDB_S_101376","StateName":"Minnesota"},"geometry": { "type": "Point","coordinates": [-95.1919,47.2256]}},{"type": "Feature", "id":151, "properties": {"SourceCode":"CDIAC","StationName":"TWO HARBORS","StationCode":"218419","StationID":"101392","CDBCode":"CDB_S_101392","StateName":"Minnesota"},"geometry": { "type": "Point","coordinates": [-91.6653,47.0258]}},{"type": "Feature", "id":152, "properties": {"SourceCode":"CDIAC","StationName":"HATTIESBURG 5SW","StationCode":"223887","StationID":"101408","CDBCode":"CDB_S_101408","StateName":"Mississippi"},"geometry": { "type": "Point","coordinates": [-89.3392,31.2547]}},{"type": "Feature", "id":153, "properties": {"SourceCode":"CDIAC","StationName":"WAYNESBORO 2 W","StationCode":"229439","StationID":"101425","CDBCode":"CDB_S_101425","StateName":"Mississippi"},"geometry": { "type": "Point","coordinates": [-88.6708,31.6772]}},{"type": "Feature", "id":154, "properties": {"SourceCode":"CDIAC","StationName":"LOCKWOOD","StationCode":"235027","StationID":"101441","CDBCode":"CDB_S_101441","StateName":"Missouri"},"geometry": { "type": "Point","coordinates": [-93.9489,37.3908]}},{"type": "Feature", "id":155, "properties": {"SourceCode":"CDIAC","StationName":"MEXICO","StationCode":"235541","StationID":"101443","CDBCode":"CDB_S_101443","StateName":"Missouri"},"geometry": { "type": "Point","coordinates": [-91.8861,39.1756]}},{"type": "Feature", "id":156, "properties": {"SourceCode":"CDIAC","StationName":"MOBERLY","StationCode":"235671","StationID":"101444","CDBCode":"CDB_S_101444","StateName":"Missouri"},"geometry": { "type": "Point","coordinates": [-92.4369,39.4194]}},{"type": "Feature", "id":157, "properties": {"SourceCode":"CDIAC","StationName":"HYSHAM 25 SSE","StationCode":"244364","StationID":"101476","CDBCode":"CDB_S_101476","StateName":"Montana"},"geometry": { "type": "Point","coordinates": [-107.1375,45.9353]}},{"type": "Feature", "id":158, "properties": {"SourceCode":"CDIAC","StationName":"KALISPELL GLACIER AP","StationCode":"244558","StationID":"101478","CDBCode":"CDB_S_101478","StateName":"Montana"},"geometry": { "type": "Point","coordinates": [-114.2636,48.3042]}},{"type": "Feature", "id":159, "properties": {"SourceCode":"CDIAC","StationName":"KENNEBEC","StationCode":"394516","StationID":"101893","CDBCode":"CDB_S_101893","StateName":"South Dakota"},"geometry": { "type": "Point","coordinates": [-99.8628,43.9072]}},{"type": "Feature", "id":160, "properties": {"SourceCode":"CDIAC","StationName":"MENNO","StationCode":"395481","StationID":"101895","CDBCode":"CDB_S_101895","StateName":"South Dakota"},"geometry": { "type": "Point","coordinates": [-97.5714,43.2358]}},{"type": "Feature", "id":161, "properties": {"SourceCode":"CDIAC","StationName":"MC MINNVILLE","StationCode":"405882","StationID":"101912","CDBCode":"CDB_S_101912","StateName":"Tennessee"},"geometry": { "type": "Point","coordinates": [-85.7811,35.6717]}},{"type": "Feature", "id":162, "properties": {"SourceCode":"CDIAC","StationName":"BRENHAM","StationCode":"411048","StationID":"101928","CDBCode":"CDB_S_101928","StateName":"Texas"},"geometry": { "type": "Point","coordinates": [-96.3972,30.1592]}},{"type": "Feature", "id":163, "properties": {"SourceCode":"CDIAC","StationName":"FT STOCKTON","StationCode":"413280","StationID":"101942","CDBCode":"CDB_S_101942","StateName":"Texas"},"geometry": { "type": "Point","coordinates": [-102.9153,30.9072]}},{"type": "Feature", "id":164, "properties": {"SourceCode":"CDIAC","StationName":"GREEN RIVER AVIATION","StationCode":"423418","StationID":"101978","CDBCode":"CDB_S_101978","StateName":"Utah"},"geometry": { "type": "Point","coordinates": [-110.1544,38.9906]}},{"type": "Feature", "id":165, "properties": {"SourceCode":"CDIAC","StationName":"CAVENDISH","StationCode":"431243","StationID":"102009","CDBCode":"CDB_S_102009","StateName":"Vermont"},"geometry": { "type": "Point","coordinates": [-72.5989,43.3847]}},{"type": "Feature", "id":166, "properties": {"SourceCode":"CDIAC","StationName":"CHELSEA","StationCode":"431360","StationID":"102010","CDBCode":"CDB_S_102010","StateName":"Vermont"},"geometry": { "type": "Point","coordinates": [-72.45,43.9833]}},{"type": "Feature", "id":167, "properties": {"SourceCode":"CDIAC","StationName":"SAFFORD AGRICULTRL CTR","StationCode":"027390","StationID":"100957","CDBCode":"CDB_S_100957","StateName":"Arizona"},"geometry": { "type": "Point","coordinates": [-109.6808,32.815]}},{"type": "Feature", "id":168, "properties": {"SourceCode":"CDIAC","StationName":"SELIGMAN","StationCode":"027716","StationID":"100959","CDBCode":"CDB_S_100959","StateName":"Arizona"},"geometry": { "type": "Point","coordinates": [-112.8797,35.3322]}},{"type": "Feature", "id":169, "properties": {"SourceCode":"CDIAC","StationName":"MENA","StationCode":"034756","StationID":"100973","CDBCode":"CDB_S_100973","StateName":"Arkansas"},"geometry": { "type": "Point","coordinates": [-94.2494,34.5731]}},{"type": "Feature", "id":170, "properties": {"SourceCode":"CDIAC","StationName":"ELECTRA P H","StationCode":"042728","StationID":"100991","CDBCode":"CDB_S_100991","StateName":"California"},"geometry": { "type": "Point","coordinates": [-120.6706,38.3306]}},{"type": "Feature", "id":171, "properties": {"SourceCode":"CDIAC","StationName":"FAIRMONT","StationCode":"042941","StationID":"100993","CDBCode":"CDB_S_100993","StateName":"California"},"geometry": { "type": "Point","coordinates": [-118.4275,34.7042]}},{"type": "Feature", "id":172, "properties": {"SourceCode":"CDIAC","StationName":"MT SHASTA","StationCode":"045983","StationID":"101007","CDBCode":"CDB_S_101007","StateName":"California"},"geometry": { "type": "Point","coordinates": [-122.3081,41.3206]}},{"type": "Feature", "id":173, "properties": {"SourceCode":"CDIAC","StationName":"NEWPORT BEACH HARBOR","StationCode":"046175","StationID":"101010","CDBCode":"CDB_S_101010","StateName":"California"},"geometry": { "type": "Point","coordinates": [-117.8803,33.6025]}},{"type": "Feature", "id":174, "properties": {"SourceCode":"CDIAC","StationName":"CRETE","StationCode":"252020","StationID":"101507","CDBCode":"CDB_S_101507","StateName":"Nebraska"},"geometry": { "type": "Point","coordinates": [-96.9469,40.6194]}},{"type": "Feature", "id":175, "properties": {"SourceCode":"CDIAC","StationName":"STAPLETON 5W","StationCode":"258133","StationID":"101537","CDBCode":"CDB_S_101537","StateName":"Nebraska"},"geometry": { "type": "Point","coordinates": [-100.5986,41.4581]}},{"type": "Feature", "id":176, "properties": {"SourceCode":"CDIAC","StationName":"TOMS RIVER","StationCode":"288816","StationID":"101573","CDBCode":"CDB_S_101573","StateName":"New Jersey"},"geometry": { "type": "Point","coordinates": [-74.2167,39.95]}},{"type": "Feature", "id":177, "properties": {"SourceCode":"CDIAC","StationName":"ELEPHANT BUTTE DAM","StationCode":"292848","StationID":"101582","CDBCode":"CDB_S_101582","StateName":"New Mexico"},"geometry": { "type": "Point","coordinates": [-107.1844,33.1461]}},{"type": "Feature", "id":178, "properties": {"SourceCode":"CDIAC","StationName":"LOS LUNAS 3 SSW","StationCode":"295150","StationID":"101589","CDBCode":"CDB_S_101589","StateName":"New Mexico"},"geometry": { "type": "Point","coordinates": [-106.7611,34.7675]}},{"type": "Feature", "id":179, "properties": {"SourceCode":"CDIAC","StationName":"ANGELICA","StationCode":"300183","StationID":"101607","CDBCode":"CDB_S_101607","StateName":"New York"},"geometry": { "type": "Point","coordinates": [-77.9889,42.3017]}},{"type": "Feature", "id":180, "properties": {"SourceCode":"CDIAC","StationName":"SAVANNAH INTL AP","StationCode":"097847","StationID":"101105","CDBCode":"CDB_S_101105","StateName":"Georgia"},"geometry": { "type": "Point","coordinates": [-81.21,32.13]}},{"type": "Feature", "id":181, "properties": {"SourceCode":"CDIAC","StationName":"GLENNS FERRY","StationCode":"103631","StationID":"101121","CDBCode":"CDB_S_101121","StateName":"Idaho"},"geometry": { "type": "Point","coordinates": [-115.3231,42.9403]}},{"type": "Feature", "id":182, "properties": {"SourceCode":"CDIAC","StationName":"LEWISTON AP","StationCode":"105241","StationID":"101128","CDBCode":"CDB_S_101128","StateName":"Idaho"},"geometry": { "type": "Point","coordinates": [-117.0156,46.3747]}},{"type": "Feature", "id":183, "properties": {"SourceCode":"CDIAC","StationName":"HILLSBORO","StationCode":"114108","StationID":"101153","CDBCode":"CDB_S_101153","StateName":"Illinois"},"geometry": { "type": "Point","coordinates": [-89.4833,39.15]}},{"type": "Feature", "id":184, "properties": {"SourceCode":"CDIAC","StationName":"JACKSONVILLE 2E","StationCode":"114442","StationID":"101155","CDBCode":"CDB_S_101155","StateName":"Illinois"},"geometry": { "type": "Point","coordinates": [-90.1978,39.7347]}},{"type": "Feature", "id":185, "properties": {"SourceCode":"CDIAC","StationName":"SPARTA 1 W","StationCode":"118147","StationID":"101173","CDBCode":"CDB_S_101173","StateName":"Illinois"},"geometry": { "type": "Point","coordinates": [-89.7167,38.1167]}},{"type": "Feature", "id":186, "properties": {"SourceCode":"CDIAC","StationName":"FOREST CITY 2 NNE","StationCode":"132977","StationID":"101223","CDBCode":"CDB_S_101223","StateName":"Iowa"},"geometry": { "type": "Point","coordinates": [-93.6306,43.2844]}},{"type": "Feature", "id":187, "properties": {"SourceCode":"CDIAC","StationName":"LOGAN","StationCode":"134894","StationID":"101228","CDBCode":"CDB_S_101228","StateName":"Iowa"},"geometry": { "type": "Point","coordinates": [-95.7883,41.6381]}},{"type": "Feature", "id":188, "properties": {"SourceCode":"CDIAC","StationName":"LEAVENWORTH","StationCode":"144588","StationID":"101253","CDBCode":"CDB_S_101253","StateName":"Kansas"},"geometry": { "type": "Point","coordinates": [-94.9189,39.3256]}},{"type": "Feature", "id":189, "properties": {"SourceCode":"CDIAC","StationName":"FRANKLIN 3 NW","StationCode":"163313","StationID":"101289","CDBCode":"CDB_S_101289","StateName":"Louisiana"},"geometry": { "type": "Point","coordinates": [-91.5442,29.8233]}},{"type": "Feature", "id":190, "properties": {"SourceCode":"CDIAC","StationName":"ST JOSEPH 3 N","StationCode":"168163","StationID":"101296","CDBCode":"CDB_S_101296","StateName":"Louisiana"},"geometry": { "type": "Point","coordinates": [-91.2336,31.9497]}},{"type": "Feature", "id":191, "properties": {"SourceCode":"CDIAC","StationName":"WINNSBORO 5 SSE","StationCode":"169806","StationID":"101298","CDBCode":"CDB_S_101298","StateName":"Louisiana"},"geometry": { "type": "Point","coordinates": [-91.7019,32.0994]}},{"type": "Feature", "id":192, "properties": {"SourceCode":"CDIAC","StationName":"FARMINGTON","StationCode":"172765","StationID":"101303","CDBCode":"CDB_S_101303","StateName":"Maine"},"geometry": { "type": "Point","coordinates": [-70.1567,44.6889]}},{"type": "Feature", "id":193, "properties": {"SourceCode":"CDIAC","StationName":"CAMBRIDGE WATER TRMT P","StationCode":"181385","StationID":"101312","CDBCode":"CDB_S_101312","StateName":"Maryland"},"geometry": { "type": "Point","coordinates": [-76.0667,38.5667]}},{"type": "Feature", "id":194, "properties": {"SourceCode":"CDIAC","StationName":"GUTHRIE 5S","StationCode":"343821","StationID":"101755","CDBCode":"CDB_S_101755","StateName":"Oklahoma"},"geometry": { "type": "Point","coordinates": [-97.395,35.8161]}},{"type": "Feature", "id":195, "properties": {"SourceCode":"CDIAC","StationName":"HENNESSEY 4 ESE","StationCode":"344055","StationID":"101757","CDBCode":"CDB_S_101757","StateName":"Oklahoma"},"geometry": { "type": "Point","coordinates": [-97.835,36.0942]}},{"type": "Feature", "id":196, "properties": {"SourceCode":"CDIAC","StationName":"MC MINNVILLE","StationCode":"355384","StationID":"101807","CDBCode":"CDB_S_101807","StateName":"Oregon"},"geometry": { "type": "Point","coordinates": [-123.1622,45.2214]}},{"type": "Feature", "id":197, "properties": {"SourceCode":"CDIAC","StationName":"UNIONTOWN 1 NE","StationCode":"369050","StationID":"101841","CDBCode":"CDB_S_101841","StateName":"Pennsylvania"},"geometry": { "type": "Point","coordinates": [-79.7192,39.915]}},{"type": "Feature", "id":198, "properties": {"SourceCode":"CDIAC","StationName":"SUMMERVILLE 4W","StationCode":"388426","StationID":"101873","CDBCode":"CDB_S_101873","StateName":"South Carolina"},"geometry": { "type": "Point","coordinates": [-80.2325,33.0367]}},{"type": "Feature", "id":199, "properties": {"SourceCode":"CDIAC","StationName":"WALHALLA","StationCode":"388887","StationID":"101875","CDBCode":"CDB_S_101875","StateName":"South Carolina"},"geometry": { "type": "Point","coordinates": [-83.0842,34.7483]}},{"type": "Feature", "id":200, "properties": {"SourceCode":"CDIAC","StationName":"HIGHLAND HOME","StationCode":"013816","StationID":"100930","CDBCode":"CDB_S_100930","StateName":"Alabama"},"geometry": { "type": "Point","coordinates": [-86.2542,31.87]}},{"type": "Feature", "id":201, "properties": {"SourceCode":"CDIAC","StationName":"UNION SPRINGS 9 S","StationCode":"018438","StationID":"100939","CDBCode":"CDB_S_100939","StateName":"Alabama"},"geometry": { "type": "Point","coordinates": [-85.7464,32.0142]}},{"type": "Feature", "id":202, "properties": {"SourceCode":"CDIAC","StationName":"CHANDLER HEIGHTS","StationCode":"021514","StationID":"100944","CDBCode":"CDB_S_100944","StateName":"Arizona"},"geometry": { "type": "Point","coordinates": [-111.6819,33.2058]}},{"type": "Feature", "id":203, "properties": {"SourceCode":"CDIAC","StationName":"IRONWOOD","StationCode":"204104","StationID":"101353","CDBCode":"CDB_S_101353","StateName":"Michigan"},"geometry": { "type": "Point","coordinates": [-90.1892,46.4656]}},{"type": "Feature", "id":204, "properties": {"SourceCode":"CDIAC","StationName":"MIDLAND","StationCode":"205434","StationID":"101355","CDBCode":"CDB_S_101355","StateName":"Michigan"},"geometry": { "type": "Point","coordinates": [-84.2011,43.6089]}},{"type": "Feature", "id":205, "properties": {"SourceCode":"CDIAC","StationName":"MINNEAPOLIS/ST PAUL AP","StationCode":"215435","StationID":"101380","CDBCode":"CDB_S_101380","StateName":"Minnesota"},"geometry": { "type": "Point","coordinates": [-93.2289,44.8831]}},{"type": "Feature", "id":206, "properties": {"SourceCode":"CDIAC","StationName":"CRYSTAL SPGS EXP STN","StationCode":"222094","StationID":"101405","CDBCode":"CDB_S_101405","StateName":"Mississippi"},"geometry": { "type": "Point","coordinates": [-90.3775,31.9461]}},{"type": "Feature", "id":207, "properties": {"SourceCode":"CDIAC","StationName":"GREENVILLE","StationCode":"223605","StationID":"101407","CDBCode":"CDB_S_101407","StateName":"Mississippi"},"geometry": { "type": "Point","coordinates": [-91.06,33.3592]}},{"type": "Feature", "id":208, "properties": {"SourceCode":"CDIAC","StationName":"LAUREL","StationCode":"224939","StationID":"101412","CDBCode":"CDB_S_101412","StateName":"Mississippi"},"geometry": { "type": "Point","coordinates": [-89.1236,31.6756]}},{"type": "Feature", "id":209, "properties": {"SourceCode":"CDIAC","StationName":"CLINTON","StationCode":"231711","StationID":"101432","CDBCode":"CDB_S_101432","StateName":"Missouri"},"geometry": { "type": "Point","coordinates": [-93.7711,38.395]}},{"type": "Feature", "id":210, "properties": {"SourceCode":"CDIAC","StationName":"AUGUSTA","StationCode":"240364","StationID":"101455","CDBCode":"CDB_S_101455","StateName":"Montana"},"geometry": { "type": "Point","coordinates": [-112.3964,47.4931]}},{"type": "Feature", "id":211, "properties": {"SourceCode":"CDIAC","StationName":"ENNIS","StationCode":"242793","StationID":"101464","CDBCode":"CDB_S_101464","StateName":"Montana"},"geometry": { "type": "Point","coordinates": [-111.7111,45.3394]}},{"type": "Feature", "id":212, "properties": {"SourceCode":"CDIAC","StationName":"LIVINGSTON 12 S","StationCode":"245080","StationID":"101480","CDBCode":"CDB_S_101480","StateName":"Montana"},"geometry": { "type": "Point","coordinates": [-110.5689,45.4836]}},{"type": "Feature", "id":213, "properties": {"SourceCode":"CDIAC","StationName":"MILBANK 4 NW","StationCode":"395536","StationID":"101896","CDBCode":"CDB_S_101896","StateName":"South Dakota"},"geometry": { "type": "Point","coordinates": [-96.6689,45.2836]}},{"type": "Feature", "id":214, "properties": {"SourceCode":"CDIAC","StationName":"RAPID CITY 4NW","StationCode":"396947","StationID":"101900","CDBCode":"CDB_S_101900","StateName":"South Dakota"},"geometry": { "type": "Point","coordinates": [-103.2828,44.115]}},{"type": "Feature", "id":215, "properties": {"SourceCode":"CDIAC","StationName":"COPPERHILL","StationCode":"402024","StationID":"101905","CDBCode":"CDB_S_101905","StateName":"Tennessee"},"geometry": { "type": "Point","coordinates": [-84.3758,34.9939]}},{"type": "Feature", "id":216, "properties": {"SourceCode":"CDIAC","StationName":"CROSSVILLE ED & RESEARCH","StationCode":"402202","StationID":"101907","CDBCode":"CDB_S_101907","StateName":"Tennessee"},"geometry": { "type": "Point","coordinates": [-85.1311,36.0147]}},{"type": "Feature", "id":217, "properties": {"SourceCode":"CDIAC","StationName":"MANASSA","StationCode":"055322","StationID":"101051","CDBCode":"CDB_S_101051","StateName":"Colorado"},"geometry": { "type": "Point","coordinates": [-105.9392,37.1742]}},{"type": "Feature", "id":218, "properties": {"SourceCode":"CDIAC","StationName":"NEWARK UNIV FARM","StationCode":"076410","StationID":"101066","CDBCode":"CDB_S_101066","StateName":"Delaware"},"geometry": { "type": "Point","coordinates": [-75.7514,39.6694]}},{"type": "Feature", "id":219, "properties": {"SourceCode":"CDIAC","StationName":"WILMINGTON PORTER RES","StationCode":"079605","StationID":"101067","CDBCode":"CDB_S_101067","StateName":"Delaware"},"geometry": { "type": "Point","coordinates": [-75.5414,39.7739]}},{"type": "Feature", "id":220, "properties": {"SourceCode":"CDIAC","StationName":"MILDRED 5 N","StationCode":"245668","StationID":"101483","CDBCode":"CDB_S_101483","StateName":"Montana"},"geometry": { "type": "Point","coordinates": [-104.9619,46.7614]}},{"type": "Feature", "id":221, "properties": {"SourceCode":"CDIAC","StationName":"MILES CITY AP","StationCode":"245690","StationID":"101484","CDBCode":"CDB_S_101484","StateName":"Montana"},"geometry": { "type": "Point","coordinates": [-105.8825,46.4267]}},{"type": "Feature", "id":222, "properties": {"SourceCode":"CDIAC","StationName":"NORRIS MADISON PH","StationCode":"246157","StationID":"101486","CDBCode":"CDB_S_101486","StateName":"Montana"},"geometry": { "type": "Point","coordinates": [-111.6325,45.4856]}},{"type": "Feature", "id":223, "properties": {"SourceCode":"CDIAC","StationName":"ASHLAND NO 2","StationCode":"250375","StationID":"101500","CDBCode":"CDB_S_101500","StateName":"Nebraska"},"geometry": { "type": "Point","coordinates": [-96.3775,41.0406]}},{"type": "Feature", "id":224, "properties": {"SourceCode":"CDIAC","StationName":"ATKINSON 3SW","StationCode":"250420","StationID":"101501","CDBCode":"CDB_S_101501","StateName":"Nebraska"},"geometry": { "type": "Point","coordinates": [-99.0303,42.5136]}},{"type": "Feature", "id":225, "properties": {"SourceCode":"CDIAC","StationName":"AUBURN 5 ESE","StationCode":"250435","StationID":"101502","CDBCode":"CDB_S_101502","StateName":"Nebraska"},"geometry": { "type": "Point","coordinates": [-95.7467,40.3703]}},{"type": "Feature", "id":226, "properties": {"SourceCode":"CDIAC","StationName":"BEATRICE 1N","StationCode":"250622","StationID":"101503","CDBCode":"CDB_S_101503","StateName":"Nebraska"},"geometry": { "type": "Point","coordinates": [-96.75,40.2994]}},{"type": "Feature", "id":227, "properties": {"SourceCode":"CDIAC","StationName":"GAGE","StationCode":"293368","StationID":"101585","CDBCode":"CDB_S_101585","StateName":"New Mexico"},"geometry": { "type": "Point","coordinates": [-108.0867,32.2261]}},{"type": "Feature", "id":228, "properties": {"SourceCode":"CDIAC","StationName":"JEMEZ SPRINGS","StationCode":"294369","StationID":"101586","CDBCode":"CDB_S_101586","StateName":"New Mexico"},"geometry": { "type": "Point","coordinates": [-106.6872,35.7783]}},{"type": "Feature", "id":229, "properties": {"SourceCode":"CDIAC","StationName":"CLINTON #1","StationCode":"131635","StationID":"101219","CDBCode":"CDB_S_101219","StateName":"Iowa"},"geometry": { "type": "Point","coordinates": [-90.2639,41.7947]}},{"type": "Feature", "id":230, "properties": {"SourceCode":"CDIAC","StationName":"TOLEDO 3N","StationCode":"138296","StationID":"101235","CDBCode":"CDB_S_101235","StateName":"Iowa"},"geometry": { "type": "Point","coordinates": [-92.5806,42.0356]}},{"type": "Feature", "id":231, "properties": {"SourceCode":"CDIAC","StationName":"JETMORE 8NNW","StationCode":"144087","StationID":"101249","CDBCode":"CDB_S_101249","StateName":"Kansas"},"geometry": { "type": "Point","coordinates": [-99.9181,38.1964]}},{"type": "Feature", "id":232, "properties": {"SourceCode":"CDIAC","StationName":"BARBOURVILLE","StationCode":"150381","StationID":"101269","CDBCode":"CDB_S_101269","StateName":"Kentucky"},"geometry": { "type": "Point","coordinates": [-83.8819,36.8825]}},{"type": "Feature", "id":233, "properties": {"SourceCode":"CDIAC","StationName":"BASTROP","StationCode":"160537","StationID":"101283","CDBCode":"CDB_S_101283","StateName":"Louisiana"},"geometry": { "type": "Point","coordinates": [-92.0056,32.7689]}},{"type": "Feature", "id":234, "properties": {"SourceCode":"CDIAC","StationName":"CORINNA","StationCode":"171628","StationID":"101301","CDBCode":"CDB_S_101301","StateName":"Maine"},"geometry": { "type": "Point","coordinates": [-69.2417,44.9197]}},{"type": "Feature", "id":235, "properties": {"SourceCode":"CDIAC","StationName":"MD SCI CTR BALTIMORE","StationCode":"185718","StationID":"101318","CDBCode":"CDB_S_101318","StateName":"Maryland"},"geometry": { "type": "Point","coordinates": [-76.61,39.2811]}},{"type": "Feature", "id":236, "properties": {"SourceCode":"CDIAC","StationName":"NEW BEDFORD","StationCode":"195246","StationID":"101332","CDBCode":"CDB_S_101332","StateName":"Massachusetts"},"geometry": { "type": "Point","coordinates": [-70.9333,41.6333]}},{"type": "Feature", "id":237, "properties": {"SourceCode":"CDIAC","StationName":"PROVINCETOWN","StationCode":"196681","StationID":"101334","CDBCode":"CDB_S_101334","StateName":"Massachusetts"},"geometry": { "type": "Point","coordinates": [-70.1833,42.05]}},{"type": "Feature", "id":238, "properties": {"SourceCode":"CDIAC","StationName":"MUSKOGEE","StationCode":"346130","StationID":"101768","CDBCode":"CDB_S_101768","StateName":"Oklahoma"},"geometry": { "type": "Point","coordinates": [-95.3339,35.7781]}},{"type": "Feature", "id":239, "properties": {"SourceCode":"CDIAC","StationName":"MUTUAL","StationCode":"346139","StationID":"101769","CDBCode":"CDB_S_101769","StateName":"Oklahoma"},"geometry": { "type": "Point","coordinates": [-99.17,36.2283]}},{"type": "Feature", "id":240, "properties": {"SourceCode":"CDIAC","StationName":"BAKER CITY AP","StationCode":"350412","StationID":"101785","CDBCode":"CDB_S_101785","StateName":"Oregon"},"geometry": { "type": "Point","coordinates": [-117.8086,44.8428]}},{"type": "Feature", "id":241, "properties": {"SourceCode":"CDIAC","StationName":"HERMISTON 1 SE","StationCode":"353847","StationID":"101801","CDBCode":"CDB_S_101801","StateName":"Oregon"},"geometry": { "type": "Point","coordinates": [-119.2636,45.8289]}},{"type": "Feature", "id":242, "properties": {"SourceCode":"CDIAC","StationName":"THREE LYNX","StationCode":"358466","StationID":"101818","CDBCode":"CDB_S_101818","StateName":"Oregon"},"geometry": { "type": "Point","coordinates": [-122.07,45.1219]}},{"type": "Feature", "id":243, "properties": {"SourceCode":"CDIAC","StationName":"PLEASANT MT 1 W","StationCode":"367029","StationID":"101834","CDBCode":"CDB_S_101834","StateName":"Pennsylvania"},"geometry": { "type": "Point","coordinates": [-75.4464,41.7394]}},{"type": "Feature", "id":244, "properties": {"SourceCode":"CDIAC","StationName":"SELINSGROVE 2 S","StationCode":"367931","StationID":"101837","CDBCode":"CDB_S_101837","StateName":"Pennsylvania"},"geometry": { "type": "Point","coordinates": [-76.8611,40.7831]}},{"type": "Feature", "id":245, "properties": {"SourceCode":"CDIAC","StationName":"BEAUFORT WWTP","StationCode":"380559","StationID":"101852","CDBCode":"CDB_S_101852","StateName":"South Carolina"},"geometry": { "type": "Point","coordinates": [-80.6956,32.3953]}},{"type": "Feature", "id":246, "properties": {"SourceCode":"CDIAC","StationName":"CALHOUN FALLS","StationCode":"381277","StationID":"101854","CDBCode":"CDB_S_101854","StateName":"South Carolina"},"geometry": { "type": "Point","coordinates": [-82.5883,34.0906]}},{"type": "Feature", "id":247, "properties": {"SourceCode":"CDIAC","StationName":"MUSCLE SHOALS AP","StationCode":"015749","StationID":"100931","CDBCode":"CDB_S_100931","StateName":"Alabama"},"geometry": { "type": "Point","coordinates": [-87.5997,34.7442]}},{"type": "Feature", "id":248, "properties": {"SourceCode":"CDIAC","StationName":"SCOTTSBORO","StationCode":"017304","StationID":"100933","CDBCode":"CDB_S_100933","StateName":"Alabama"},"geometry": { "type": "Point","coordinates": [-86.0536,34.6736]}},{"type": "Feature", "id":249, "properties": {"SourceCode":"CDIAC","StationName":"BAUDETTE","StationCode":"210515","StationID":"101366","CDBCode":"CDB_S_101366","StateName":"Minnesota"},"geometry": { "type": "Point","coordinates": [-94.5869,48.7094]}},{"type": "Feature", "id":250, "properties": {"SourceCode":"CDIAC","StationName":"MORRIS WC EXP STN","StationCode":"215638","StationID":"101383","CDBCode":"CDB_S_101383","StateName":"Minnesota"},"geometry": { "type": "Point","coordinates": [-95.8747,45.5903]}},{"type": "Feature", "id":251, "properties": {"SourceCode":"CDIAC","StationName":"PARK RAPIDS 2 S","StationCode":"216360","StationID":"101386","CDBCode":"CDB_S_101386","StateName":"Minnesota"},"geometry": { "type": "Point","coordinates": [-95.0678,46.9006]}},{"type": "Feature", "id":252, "properties": {"SourceCode":"CDIAC","StationName":"PONTOTOC EXP STN","StationCode":"227111","StationID":"101418","CDBCode":"CDB_S_101418","StateName":"Mississippi"},"geometry": { "type": "Point","coordinates": [-88.9983,34.1381]}},{"type": "Feature", "id":253, "properties": {"SourceCode":"CDIAC","StationName":"CONCEPTION","StationCode":"231822","StationID":"101433","CDBCode":"CDB_S_101433","StateName":"Missouri"},"geometry": { "type": "Point","coordinates": [-94.6833,40.2394]}},{"type": "Feature", "id":254, "properties": {"SourceCode":"CDIAC","StationName":"WARRENTON 1 N","StationCode":"238725","StationID":"101453","CDBCode":"CDB_S_101453","StateName":"Missouri"},"geometry": { "type": "Point","coordinates": [-91.1386,38.835]}},{"type": "Feature", "id":255, "properties": {"SourceCode":"CDIAC","StationName":"FORKS 4 NNE","StationCode":"243089","StationID":"101466","CDBCode":"CDB_S_101466","StateName":"Montana"},"geometry": { "type": "Point","coordinates": [-107.4536,48.7778]}},{"type": "Feature", "id":256, "properties": {"SourceCode":"CDIAC","StationName":"FAULKTON 1 NW","StationCode":"392927","StationID":"101887","CDBCode":"CDB_S_101887","StateName":"South Dakota"},"geometry": { "type": "Point","coordinates": [-99.1342,45.0364]}},{"type": "Feature", "id":257, "properties": {"SourceCode":"CDIAC","StationName":"CLARKSVILLE WWTP","StationCode":"401790","StationID":"101904","CDBCode":"CDB_S_101904","StateName":"Tennessee"},"geometry": { "type": "Point","coordinates": [-87.3567,36.5467]}},{"type": "Feature", "id":258, "properties": {"SourceCode":"CDIAC","StationName":"ALTON","StationCode":"420086","StationID":"101968","CDBCode":"CDB_S_101968","StateName":"Utah"},"geometry": { "type": "Point","coordinates": [-112.4819,37.4403]}},{"type": "Feature", "id":259, "properties": {"SourceCode":"CDIAC","StationName":"CORINNE","StationCode":"421731","StationID":"101971","CDBCode":"CDB_S_101971","StateName":"Utah"},"geometry": { "type": "Point","coordinates": [-112.1106,41.5481]}},{"type": "Feature", "id":260, "properties": {"SourceCode":"CDIAC","StationName":"CIMARRON 4 SW","StationCode":"291813","StationID":"101579","CDBCode":"CDB_S_101579","StateName":"New Mexico"},"geometry": { "type": "Point","coordinates": [-104.9456,36.4661]}},{"type": "Feature", "id":261, "properties": {"SourceCode":"CDIAC","StationName":"LAS VEGAS WWTP","StationCode":"294862","StationID":"101588","CDBCode":"CDB_S_101588","StateName":"New Mexico"},"geometry": { "type": "Point","coordinates": [-105.2131,35.5678]}},{"type": "Feature", "id":262, "properties": {"SourceCode":"CDIAC","StationName":"SANTA ROSA","StationCode":"298107","StationID":"101597","CDBCode":"CDB_S_101597","StateName":"New Mexico"},"geometry": { "type": "Point","coordinates": [-104.6805,34.9358]}},{"type": "Feature", "id":263, "properties": {"SourceCode":"CDIAC","StationName":"SPRINGER","StationCode":"298501","StationID":"101599","CDBCode":"CDB_S_101599","StateName":"New Mexico"},"geometry": { "type": "Point","coordinates": [-104.585,36.3628]}},{"type": "Feature", "id":264, "properties": {"SourceCode":"CDIAC","StationName":"ALBANY INTL AP","StationCode":"300042","StationID":"101604","CDBCode":"CDB_S_101604","StateName":"New York"},"geometry": { "type": "Point","coordinates": [-73.8092,42.7431]}},{"type": "Feature", "id":265, "properties": {"SourceCode":"CDIAC","StationName":"BUFFALO NIAGARA INTL","StationCode":"301012","StationID":"101613","CDBCode":"CDB_S_101613","StateName":"New York"},"geometry": { "type": "Point","coordinates": [-78.7358,42.9408]}},{"type": "Feature", "id":266, "properties": {"SourceCode":"CDIAC","StationName":"CHAZY","StationCode":"301401","StationID":"101615","CDBCode":"CDB_S_101615","StateName":"New York"},"geometry": { "type": "Point","coordinates": [-73.3953,44.8786]}},{"type": "Feature", "id":267, "properties": {"SourceCode":"CDIAC","StationName":"SAINT LEO","StationCode":"087851","StationID":"101086","CDBCode":"CDB_S_101086","StateName":"Florida"},"geometry": { "type": "Point","coordinates": [-82.26,28.3378]}},{"type": "Feature", "id":268, "properties": {"SourceCode":"CDIAC","StationName":"DAHLONEGA","StationCode":"092475","StationID":"101095","CDBCode":"CDB_S_101095","StateName":"Georgia"},"geometry": { "type": "Point","coordinates": [-83.99,34.5292]}},{"type": "Feature", "id":269, "properties": {"SourceCode":"CDIAC","StationName":"ABERDEEN EXP STN","StationCode":"100010","StationID":"101113","CDBCode":"CDB_S_101113","StateName":"Idaho"},"geometry": { "type": "Point","coordinates": [-112.8253,42.9536]}},{"type": "Feature", "id":270, "properties": {"SourceCode":"CDIAC","StationName":"MALAD CITY","StationCode":"105559","StationID":"101131","CDBCode":"CDB_S_101131","StateName":"Idaho"},"geometry": { "type": "Point","coordinates": [-112.2872,42.1492]}},{"type": "Feature", "id":271, "properties": {"SourceCode":"CDIAC","StationName":"CARLINVILLE","StationCode":"111280","StationID":"101145","CDBCode":"CDB_S_101145","StateName":"Illinois"},"geometry": { "type": "Point","coordinates": [-89.8703,39.2883]}},{"type": "Feature", "id":272, "properties": {"SourceCode":"CDIAC","StationName":"ASHLAND","StationCode":"140365","StationID":"101238","CDBCode":"CDB_S_101238","StateName":"Kansas"},"geometry": { "type": "Point","coordinates": [-99.7633,37.1942]}},{"type": "Feature", "id":273, "properties": {"SourceCode":"CDIAC","StationName":"FT SCOTT","StationCode":"142835","StationID":"101245","CDBCode":"CDB_S_101245","StateName":"Kansas"},"geometry": { "type": "Point","coordinates": [-94.7086,37.8428]}},{"type": "Feature", "id":274, "properties": {"SourceCode":"CDIAC","StationName":"HORTON","StationCode":"143810","StationID":"101247","CDBCode":"CDB_S_101247","StateName":"Kansas"},"geometry": { "type": "Point","coordinates": [-95.5225,39.6703]}},{"type": "Feature", "id":275, "properties": {"SourceCode":"CDIAC","StationName":"OLATHE 3E","StationCode":"145972","StationID":"101261","CDBCode":"CDB_S_101261","StateName":"Kansas"},"geometry": { "type": "Point","coordinates": [-94.7603,38.8875]}},{"type": "Feature", "id":276, "properties": {"SourceCode":"CDIAC","StationName":"SAINT FRANCIS","StationCode":"147093","StationID":"101263","CDBCode":"CDB_S_101263","StateName":"Kansas"},"geometry": { "type": "Point","coordinates": [-101.8097,39.7675]}},{"type": "Feature", "id":277, "properties": {"SourceCode":"CDIAC","StationName":"SEDAN","StationCode":"147305","StationID":"101265","CDBCode":"CDB_S_101265","StateName":"Kansas"},"geometry": { "type": "Point","coordinates": [-96.1861,37.1317]}},{"type": "Feature", "id":278, "properties": {"SourceCode":"CDIAC","StationName":"LEWISTON","StationCode":"174566","StationID":"101306","CDBCode":"CDB_S_101306","StateName":"Maine"},"geometry": { "type": "Point","coordinates": [-70.2167,44.1]}},{"type": "Feature", "id":279, "properties": {"SourceCode":"CDIAC","StationName":"OAKLAND 1 SE","StationCode":"186620","StationID":"101320","CDBCode":"CDB_S_101320","StateName":"Maryland"},"geometry": { "type": "Point","coordinates": [-79.4,39.4133]}},{"type": "Feature", "id":280, "properties": {"SourceCode":"CDIAC","StationName":"WEST MEDWAY","StationCode":"199316","StationID":"101338","CDBCode":"CDB_S_101338","StateName":"Massachusetts"},"geometry": { "type": "Point","coordinates": [-71.4333,42.1333]}},{"type": "Feature", "id":281, "properties": {"SourceCode":"CDIAC","StationName":"CHATHAM EXP FARM 2","StationCode":"201486","StationID":"101345","CDBCode":"CDB_S_101345","StateName":"Michigan"},"geometry": { "type": "Point","coordinates": [-86.9242,46.3414]}},{"type": "Feature", "id":282, "properties": {"SourceCode":"CDIAC","StationName":"CLAREMORE 2 ENE","StationCode":"341828","StationID":"101749","CDBCode":"CDB_S_101749","StateName":"Oklahoma"},"geometry": { "type": "Point","coordinates": [-95.5808,36.3225]}},{"type": "Feature", "id":283, "properties": {"SourceCode":"CDIAC","StationName":"OKEMAH","StationCode":"346638","StationID":"101772","CDBCode":"CDB_S_101772","StateName":"Oklahoma"},"geometry": { "type": "Point","coordinates": [-96.3033,35.4253]}},{"type": "Feature", "id":284, "properties": {"SourceCode":"CDIAC","StationName":"PAULS VALLEY 4 WSW","StationCode":"346926","StationID":"101774","CDBCode":"CDB_S_101774","StateName":"Oklahoma"},"geometry": { "type": "Point","coordinates": [-97.2814,34.7253]}},{"type": "Feature", "id":285, "properties": {"SourceCode":"CDIAC","StationName":"WEATHERFORD","StationCode":"349422","StationID":"101781","CDBCode":"CDB_S_101781","StateName":"Oklahoma"},"geometry": { "type": "Point","coordinates": [-98.6986,35.52]}},{"type": "Feature", "id":286, "properties": {"SourceCode":"CDIAC","StationName":"CORVALLIS STATE UNIV","StationCode":"351862","StationID":"101790","CDBCode":"CDB_S_101790","StateName":"Oregon"},"geometry": { "type": "Point","coordinates": [-123.19,44.6342]}},{"type": "Feature", "id":287, "properties": {"SourceCode":"CDIAC","StationName":"FREMONT 5 NW","StationCode":"353095","StationID":"101797","CDBCode":"CDB_S_101797","StateName":"Oregon"},"geometry": { "type": "Point","coordinates": [-121.2122,43.3936]}},{"type": "Feature", "id":288, "properties": {"SourceCode":"CDIAC","StationName":"PALMERTON","StationCode":"366689","StationID":"101833","CDBCode":"CDB_S_101833","StateName":"Pennsylvania"},"geometry": { "type": "Point","coordinates": [-75.6167,40.8]}},{"type": "Feature", "id":289, "properties": {"SourceCode":"CDIAC","StationName":"STATE COLLEGE","StationCode":"368449","StationID":"101838","CDBCode":"CDB_S_101838","StateName":"Pennsylvania"},"geometry": { "type": "Point","coordinates": [-77.8672,40.7933]}},{"type": "Feature", "id":290, "properties": {"SourceCode":"CDIAC","StationName":"TOWANDA 1 S","StationCode":"368905","StationID":"101840","CDBCode":"CDB_S_101840","StateName":"Pennsylvania"},"geometry": { "type": "Point","coordinates": [-76.4431,41.7511]}},{"type": "Feature", "id":291, "properties": {"SourceCode":"CDIAC","StationName":"CHARLESTON CITY","StationCode":"381549","StationID":"101856","CDBCode":"CDB_S_101856","StateName":"South Carolina"},"geometry": { "type": "Point","coordinates": [-79.9319,32.78]}},{"type": "Feature", "id":292, "properties": {"SourceCode":"CDIAC","StationName":"CLEMSON UNIV","StationCode":"381770","StationID":"101858","CDBCode":"CDB_S_101858","StateName":"South Carolina"},"geometry": { "type": "Point","coordinates": [-82.8236,34.6603]}},{"type": "Feature", "id":293, "properties": {"SourceCode":"CDIAC","StationName":"THOMASVILLE","StationCode":"018178","StationID":"100936","CDBCode":"CDB_S_100936","StateName":"Alabama"},"geometry": { "type": "Point","coordinates": [-87.8833,31.5411]}},{"type": "Feature", "id":294, "properties": {"SourceCode":"CDIAC","StationName":"ADA","StationCode":"210018","StationID":"101363","CDBCode":"CDB_S_101363","StateName":"Minnesota"},"geometry": { "type": "Point","coordinates": [-96.5161,47.2992]}},{"type": "Feature", "id":295, "properties": {"SourceCode":"CDIAC","StationName":"MILAN 1 NW","StationCode":"215400","StationID":"101379","CDBCode":"CDB_S_101379","StateName":"Minnesota"},"geometry": { "type": "Point","coordinates": [-95.9269,45.1219]}},{"type": "Feature", "id":296, "properties": {"SourceCode":"CDIAC","StationName":"MONTEVIDEO 1 SW","StationCode":"215563","StationID":"101381","CDBCode":"CDB_S_101381","StateName":"Minnesota"},"geometry": { "type": "Point","coordinates": [-95.7536,44.9364]}},{"type": "Feature", "id":297, "properties": {"SourceCode":"CDIAC","StationName":"BATESVILLE 2 SW","StationCode":"220488","StationID":"101397","CDBCode":"CDB_S_101397","StateName":"Mississippi"},"geometry": { "type": "Point","coordinates": [-89.9806,34.3061]}},{"type": "Feature", "id":298, "properties": {"SourceCode":"CDIAC","StationName":"MOORHEAD","StationCode":"226009","StationID":"101415","CDBCode":"CDB_S_101415","StateName":"Mississippi"},"geometry": { "type": "Point","coordinates": [-90.5094,33.4519]}},{"type": "Feature", "id":299, "properties": {"SourceCode":"CDIAC","StationName":"PORT GIBSON 1 NE","StationCode":"227132","StationID":"101420","CDBCode":"CDB_S_101420","StateName":"Mississippi"},"geometry": { "type": "Point","coordinates": [-90.9719,31.985]}},{"type": "Feature", "id":300, "properties": {"SourceCode":"CDIAC","StationName":"UNIVERSITY","StationCode":"229079","StationID":"101422","CDBCode":"CDB_S_101422","StateName":"Mississippi"},"geometry": { "type": "Point","coordinates": [-89.5358,34.3803]}},{"type": "Feature", "id":301, "properties": {"SourceCode":"CDIAC","StationName":"CARUTHERSVILLE","StationCode":"231364","StationID":"101431","CDBCode":"CDB_S_101431","StateName":"Missouri"},"geometry": { "type": "Point","coordinates": [-89.6642,36.1686]}},{"type": "Feature", "id":302, "properties": {"SourceCode":"CDIAC","StationName":"LEBANON 2W","StationCode":"234825","StationID":"101438","CDBCode":"CDB_S_101438","StateName":"Missouri"},"geometry": { "type": "Point","coordinates": [-92.6936,37.685]}},{"type": "Feature", "id":303, "properties": {"SourceCode":"CDIAC","StationName":"HAMILTON","StationCode":"243885","StationID":"101472","CDBCode":"CDB_S_101472","StateName":"Montana"},"geometry": { "type": "Point","coordinates": [-114.1642,46.2553]}},{"type": "Feature", "id":304, "properties": {"SourceCode":"CDIAC","StationName":"TAHOE CITY","StationCode":"048758","StationID":"101025","CDBCode":"CDB_S_101025","StateName":"California"},"geometry": { "type": "Point","coordinates": [-120.1428,39.1678]}},{"type": "Feature", "id":305, "properties": {"SourceCode":"CDIAC","StationName":"DILLON 1 E","StationCode":"052281","StationID":"101041","CDBCode":"CDB_S_101041","StateName":"Colorado"},"geometry": { "type": "Point","coordinates": [-106.0353,39.6261]}},{"type": "Feature", "id":306, "properties": {"SourceCode":"CDIAC","StationName":"FT COLLINS","StationCode":"053005","StationID":"101043","CDBCode":"CDB_S_101043","StateName":"Colorado"},"geometry": { "type": "Point","coordinates": [-105.1314,40.6147]}},{"type": "Feature", "id":307, "properties": {"SourceCode":"CDIAC","StationName":"FAIRBURY 5S","StationCode":"252820","StationID":"101510","CDBCode":"CDB_S_101510","StateName":"Nebraska"},"geometry": { "type": "Point","coordinates": [-97.1669,40.0739]}},{"type": "Feature", "id":308, "properties": {"SourceCode":"CDIAC","StationName":"WEEPING WATER","StationCode":"259090","StationID":"101542","CDBCode":"CDB_S_101542","StateName":"Nebraska"},"geometry": { "type": "Point","coordinates": [-96.1414,40.8639]}},{"type": "Feature", "id":309, "properties": {"SourceCode":"CDIAC","StationName":"KEENE","StationCode":"274399","StationID":"101561","CDBCode":"CDB_S_101561","StateName":"New Hampshire"},"geometry": { "type": "Point","coordinates": [-72.3244,42.9389]}},{"type": "Feature", "id":310, "properties": {"SourceCode":"CDIAC","StationName":"BELL RANCH","StationCode":"290858","StationID":"101575","CDBCode":"CDB_S_101575","StateName":"New Mexico"},"geometry": { "type": "Point","coordinates": [-104.0936,35.5297]}},{"type": "Feature", "id":311, "properties": {"SourceCode":"CDIAC","StationName":"OROGRANDE","StationCode":"296435","StationID":"101593","CDBCode":"CDB_S_101593","StateName":"New Mexico"},"geometry": { "type": "Point","coordinates": [-106.0911,32.3789]}},{"type": "Feature", "id":312, "properties": {"SourceCode":"CDIAC","StationName":"ROSWELL IND AP","StationCode":"297610","StationID":"101595","CDBCode":"CDB_S_101595","StateName":"New Mexico"},"geometry": { "type": "Point","coordinates": [-104.5083,33.3075]}},{"type": "Feature", "id":313, "properties": {"SourceCode":"CDIAC","StationName":"BATAVIA","StationCode":"300443","StationID":"101609","CDBCode":"CDB_S_101609","StateName":"New York"},"geometry": { "type": "Point","coordinates": [-78.1692,43.0303]}},{"type": "Feature", "id":314, "properties": {"SourceCode":"CDIAC","StationName":"BRIDGEHAMPTON","StationCode":"300889","StationID":"101611","CDBCode":"CDB_S_101611","StateName":"New York"},"geometry": { "type": "Point","coordinates": [-72.3067,40.9464]}},{"type": "Feature", "id":315, "properties": {"SourceCode":"CDIAC","StationName":"BAINBRIDGE INTL PAPER","StationCode":"090586","StationID":"101091","CDBCode":"CDB_S_101091","StateName":"Georgia"},"geometry": { "type": "Point","coordinates": [-84.6175,30.8228]}},{"type": "Feature", "id":316, "properties": {"SourceCode":"CDIAC","StationName":"FORT DODGE 5NNW","StationCode":"132999","StationID":"101224","CDBCode":"CDB_S_101224","StateName":"Iowa"},"geometry": { "type": "Point","coordinates": [-94.2006,42.5836]}},{"type": "Feature", "id":317, "properties": {"SourceCode":"CDIAC","StationName":"INDIANOLA 2W","StationCode":"134063","StationID":"101225","CDBCode":"CDB_S_101225","StateName":"Iowa"},"geometry": { "type": "Point","coordinates": [-93.6481,41.3656]}},{"type": "Feature", "id":318, "properties": {"SourceCode":"CDIAC","StationName":"IOWA FALLS","StationCode":"134142","StationID":"101226","CDBCode":"CDB_S_101226","StateName":"Iowa"},"geometry": { "type": "Point","coordinates": [-93.2536,42.5189]}},{"type": "Feature", "id":319, "properties": {"SourceCode":"CDIAC","StationName":"LE MARS","StationCode":"134735","StationID":"101227","CDBCode":"CDB_S_101227","StateName":"Iowa"},"geometry": { "type": "Point","coordinates": [-96.1458,42.7817]}},{"type": "Feature", "id":320, "properties": {"SourceCode":"CDIAC","StationName":"HENDERSON 8 SSW","StationCode":"153762","StationID":"101275","CDBCode":"CDB_S_101275","StateName":"Kentucky"},"geometry": { "type": "Point","coordinates": [-87.6456,37.7558]}},{"type": "Feature", "id":321, "properties": {"SourceCode":"CDIAC","StationName":"HOPKINSVILLE","StationCode":"153994","StationID":"101276","CDBCode":"CDB_S_101276","StateName":"Kentucky"},"geometry": { "type": "Point","coordinates": [-87.5206,36.8492]}},{"type": "Feature", "id":322, "properties": {"SourceCode":"CDIAC","StationName":"LEITCHFIELD 2 N","StationCode":"154703","StationID":"101277","CDBCode":"CDB_S_101277","StateName":"Kentucky"},"geometry": { "type": "Point","coordinates": [-86.2892,37.5108]}},{"type": "Feature", "id":323, "properties": {"SourceCode":"CDIAC","StationName":"WESTMINSTER POL BRKS","StationCode":"189440","StationID":"101325","CDBCode":"CDB_S_101325","StateName":"Maryland"},"geometry": { "type": "Point","coordinates": [-76.9667,39.55]}},{"type": "Feature", "id":324, "properties": {"SourceCode":"CDIAC","StationName":"WOODSTOCK","StationCode":"189750","StationID":"101326","CDBCode":"CDB_S_101326","StateName":"Maryland"},"geometry": { "type": "Point","coordinates": [-76.8667,39.3333]}},{"type": "Feature", "id":325, "properties": {"SourceCode":"CDIAC","StationName":"AMHERST","StationCode":"190120","StationID":"101327","CDBCode":"CDB_S_101327","StateName":"Massachusetts"},"geometry": { "type": "Point","coordinates": [-72.5375,42.3861]}},{"type": "Feature", "id":326, "properties": {"SourceCode":"CDIAC","StationName":"ANN ARBOR U OF","StationCode":"200230","StationID":"101342","CDBCode":"CDB_S_101342","StateName":"Michigan"},"geometry": { "type": "Point","coordinates": [-83.7108,42.2947]}},{"type": "Feature", "id":327, "properties": {"SourceCode":"CDIAC","StationName":"BIG RAPIDS WTR WKS","StationCode":"200779","StationID":"101343","CDBCode":"CDB_S_101343","StateName":"Michigan"},"geometry": { "type": "Point","coordinates": [-85.4822,43.7072]}},{"type": "Feature", "id":328, "properties": {"SourceCode":"CDIAC","StationName":"CHAMPION VAN RIPER PK","StationCode":"201439","StationID":"101344","CDBCode":"CDB_S_101344","StateName":"Michigan"},"geometry": { "type": "Point","coordinates": [-87.9858,46.5192]}},{"type": "Feature", "id":329, "properties": {"SourceCode":"CDIAC","StationName":"WELLSBORO 4 SW","StationCode":"369408","StationID":"101843","CDBCode":"CDB_S_101843","StateName":"Pennsylvania"},"geometry": { "type": "Point","coordinates": [-77.3894,41.7003]}},{"type": "Feature", "id":330, "properties": {"SourceCode":"CDIAC","StationName":"CONWAY","StationCode":"381997","StationID":"101860","CDBCode":"CDB_S_101860","StateName":"South Carolina"},"geometry": { "type": "Point","coordinates": [-79.0558,33.8314]}},{"type": "Feature", "id":331, "properties": {"SourceCode":"CDIAC","StationName":"DARLINGTON","StationCode":"382260","StationID":"101861","CDBCode":"CDB_S_101861","StateName":"South Carolina"},"geometry": { "type": "Point","coordinates": [-79.8767,34.3011]}},{"type": "Feature", "id":332, "properties": {"SourceCode":"CDIAC","StationName":"GEORGETOWN 2 E","StationCode":"383468","StationID":"101862","CDBCode":"CDB_S_101862","StateName":"South Carolina"},"geometry": { "type": "Point","coordinates": [-79.2239,33.3619]}},{"type": "Feature", "id":333, "properties": {"SourceCode":"CDIAC","StationName":"WINTHROP UNIV","StationCode":"389350","StationID":"101877","CDBCode":"CDB_S_101877","StateName":"South Carolina"},"geometry": { "type": "Point","coordinates": [-81.0317,34.9381]}},{"type": "Feature", "id":334, "properties": {"SourceCode":"CDIAC","StationName":"YEMASSEE","StationCode":"389469","StationID":"101878","CDBCode":"CDB_S_101878","StateName":"South Carolina"},"geometry": { "type": "Point","coordinates": [-80.8417,32.68]}},{"type": "Feature", "id":335, "properties": {"SourceCode":"CDIAC","StationName":"ABERDEEN RGNL AP","StationCode":"390020","StationID":"101879","CDBCode":"CDB_S_101879","StateName":"South Dakota"},"geometry": { "type": "Point","coordinates": [-98.4131,45.4433]}},{"type": "Feature", "id":336, "properties": {"SourceCode":"CDIAC","StationName":"VALLEY HEAD","StationCode":"018469","StationID":"100940","CDBCode":"CDB_S_100940","StateName":"Alabama"},"geometry": { "type": "Point","coordinates": [-85.6128,34.5667]}},{"type": "Feature", "id":337, "properties": {"SourceCode":"CDIAC","StationName":"MT PLEASANT UNIV","StationCode":"205662","StationID":"101357","CDBCode":"CDB_S_101357","StateName":"Michigan"},"geometry": { "type": "Point","coordinates": [-84.7697,43.5858]}},{"type": "Feature", "id":338, "properties": {"SourceCode":"CDIAC","StationName":"NEWBERRY 3S","StationCode":"205816","StationID":"101359","CDBCode":"CDB_S_101359","StateName":"Michigan"},"geometry": { "type": "Point","coordinates": [-85.5106,46.3133]}},{"type": "Feature", "id":339, "properties": {"SourceCode":"CDIAC","StationName":"OWOSSO WWTP","StationCode":"206300","StationID":"101360","CDBCode":"CDB_S_101360","StateName":"Michigan"},"geometry": { "type": "Point","coordinates": [-84.18,43.0161]}},{"type": "Feature", "id":340, "properties": {"SourceCode":"CDIAC","StationName":"SOUTH HAVEN","StationCode":"207690","StationID":"101361","CDBCode":"CDB_S_101361","StateName":"Michigan"},"geometry": { "type": "Point","coordinates": [-86.2833,42.4011]}},{"type": "Feature", "id":341, "properties": {"SourceCode":"CDIAC","StationName":"HERNANDO","StationCode":"223975","StationID":"101409","CDBCode":"CDB_S_101409","StateName":"Mississippi"},"geometry": { "type": "Point","coordinates": [-89.9853,34.8161]}},{"type": "Feature", "id":342, "properties": {"SourceCode":"CDIAC","StationName":"CASCADE 5 S","StationCode":"241552","StationID":"101458","CDBCode":"CDB_S_101458","StateName":"Montana"},"geometry": { "type": "Point","coordinates": [-111.71,47.2194]}},{"type": "Feature", "id":343, "properties": {"SourceCode":"CDIAC","StationName":"CHOTEAU","StationCode":"241737","StationID":"101460","CDBCode":"CDB_S_101460","StateName":"Montana"},"geometry": { "type": "Point","coordinates": [-112.1919,47.8206]}},{"type": "Feature", "id":344, "properties": {"SourceCode":"CDIAC","StationName":"HELENA AP ASOS","StationCode":"244055","StationID":"101474","CDBCode":"CDB_S_101474","StateName":"Montana"},"geometry": { "type": "Point","coordinates": [-111.9636,46.6056]}},{"type": "Feature", "id":345, "properties": {"SourceCode":"CDIAC","StationName":"HOWARD","StationCode":"394037","StationID":"101892","CDBCode":"CDB_S_101892","StateName":"South Dakota"},"geometry": { "type": "Point","coordinates": [-97.5242,44.0122]}},{"type": "Feature", "id":346, "properties": {"SourceCode":"CDIAC","StationName":"DOVER 1 W","StationCode":"402589","StationID":"101909","CDBCode":"CDB_S_101909","StateName":"Tennessee"},"geometry": { "type": "Point","coordinates": [-87.8628,36.4819]}},{"type": "Feature", "id":347, "properties": {"SourceCode":"CDIAC","StationName":"BALMORHEA","StationCode":"410498","StationID":"101923","CDBCode":"CDB_S_101923","StateName":"Texas"},"geometry": { "type": "Point","coordinates": [-103.7403,30.9844]}},{"type": "Feature", "id":348, "properties": {"SourceCode":"CDIAC","StationName":"BLANCO","StationCode":"410832","StationID":"101925","CDBCode":"CDB_S_101925","StateName":"Texas"},"geometry": { "type": "Point","coordinates": [-98.4286,30.1058]}},{"type": "Feature", "id":349, "properties": {"SourceCode":"CDIAC","StationName":"CORPUS CHRISTI AP","StationCode":"412015","StationID":"101932","CDBCode":"CDB_S_101932","StateName":"Texas"},"geometry": { "type": "Point","coordinates": [-97.5122,27.7742]}},{"type": "Feature", "id":350, "properties": {"SourceCode":"CDIAC","StationName":"FLATONIA","StationCode":"413183","StationID":"101941","CDBCode":"CDB_S_101941","StateName":"Texas"},"geometry": { "type": "Point","coordinates": [-97.1111,29.6778]}},{"type": "Feature", "id":351, "properties": {"SourceCode":"CDIAC","StationName":"LULING","StationCode":"415429","StationID":"101950","CDBCode":"CDB_S_101950","StateName":"Texas"},"geometry": { "type": "Point","coordinates": [-97.6564,29.6753]}},{"type": "Feature", "id":352, "properties": {"SourceCode":"CDIAC","StationName":"MULESHOE #1","StationCode":"416135","StationID":"101955","CDBCode":"CDB_S_101955","StateName":"Texas"},"geometry": { "type": "Point","coordinates": [-102.7328,34.2192]}},{"type": "Feature", "id":353, "properties": {"SourceCode":"CDIAC","StationName":"PARIS","StationCode":"416794","StationID":"101957","CDBCode":"CDB_S_101957","StateName":"Texas"},"geometry": { "type": "Point","coordinates": [-95.5586,33.6744]}},{"type": "Feature", "id":354, "properties": {"SourceCode":"CDIAC","StationName":"OGDEN PIONEER P H","StationCode":"426404","StationID":"101991","CDBCode":"CDB_S_101991","StateName":"Utah"},"geometry": { "type": "Point","coordinates": [-111.9464,41.2442]}},{"type": "Feature", "id":355, "properties": {"SourceCode":"CDIAC","StationName":"SCOFIELD-SKYLINE MINE","StationCode":"427729","StationID":"101998","CDBCode":"CDB_S_101998","StateName":"Utah"},"geometry": { "type": "Point","coordinates": [-111.2047,39.6847]}},{"type": "Feature", "id":356, "properties": {"SourceCode":"CDIAC","StationName":"WENDOVER AP AWOS","StationCode":"429382","StationID":"102005","CDBCode":"CDB_S_102005","StateName":"Utah"},"geometry": { "type": "Point","coordinates": [-114.0358,40.7206]}},{"type": "Feature", "id":357, "properties": {"SourceCode":"CDIAC","StationName":"BLACKSBURG NWSO","StationCode":"440766","StationID":"102016","CDBCode":"CDB_S_102016","StateName":"Virginia"},"geometry": { "type": "Point","coordinates": [-80.4133,37.2017]}},{"type": "Feature", "id":358, "properties": {"SourceCode":"CDIAC","StationName":"LIVERMORE","StationCode":"044997","StationID":"101003","CDBCode":"CDB_S_101003","StateName":"California"},"geometry": { "type": "Point","coordinates": [-121.7692,37.6922]}},{"type": "Feature", "id":359, "properties": {"SourceCode":"CDIAC","StationName":"PASADENA","StationCode":"046719","StationID":"101014","CDBCode":"CDB_S_101014","StateName":"California"},"geometry": { "type": "Point","coordinates": [-118.1447,34.1483]}},{"type": "Feature", "id":360, "properties": {"SourceCode":"CDIAC","StationName":"CHEESMAN","StationCode":"051528","StationID":"101037","CDBCode":"CDB_S_101037","StateName":"Colorado"},"geometry": { "type": "Point","coordinates": [-105.2783,39.2203]}},{"type": "Feature", "id":361, "properties": {"SourceCode":"CDIAC","StationName":"COLLBRAN","StationCode":"051741","StationID":"101039","CDBCode":"CDB_S_101039","StateName":"Colorado"},"geometry": { "type": "Point","coordinates": [-107.9631,39.2425]}},{"type": "Feature", "id":362, "properties": {"SourceCode":"CDIAC","StationName":"FT MORGAN","StationCode":"053038","StationID":"101044","CDBCode":"CDB_S_101044","StateName":"Colorado"},"geometry": { "type": "Point","coordinates": [-103.8156,40.26]}},{"type": "Feature", "id":363, "properties": {"SourceCode":"CDIAC","StationName":"BELLE GLADE","StationCode":"080611","StationID":"101071","CDBCode":"CDB_S_101071","StateName":"Florida"},"geometry": { "type": "Point","coordinates": [-80.6711,26.6928]}},{"type": "Feature", "id":364, "properties": {"SourceCode":"CDIAC","StationName":"FT PIERCE","StationCode":"083207","StationID":"101078","CDBCode":"CDB_S_101078","StateName":"Florida"},"geometry": { "type": "Point","coordinates": [-80.3539,27.4622]}},{"type": "Feature", "id":365, "properties": {"SourceCode":"CDIAC","StationName":"MEDICINE LAKE 3 SE","StationCode":"245572","StationID":"101482","CDBCode":"CDB_S_101482","StateName":"Montana"},"geometry": { "type": "Point","coordinates": [-104.4514,48.4828]}},{"type": "Feature", "id":366, "properties": {"SourceCode":"CDIAC","StationName":"PHILIPSBURG RS","StationCode":"246472","StationID":"101487","CDBCode":"CDB_S_101487","StateName":"Montana"},"geometry": { "type": "Point","coordinates": [-113.3,46.3158]}},{"type": "Feature", "id":367, "properties": {"SourceCode":"CDIAC","StationName":"WEST YELLOWSTONE","StationCode":"248857","StationID":"101496","CDBCode":"CDB_S_101496","StateName":"Montana"},"geometry": { "type": "Point","coordinates": [-111.1,44.65]}},{"type": "Feature", "id":368, "properties": {"SourceCode":"CDIAC","StationName":"ALBION","StationCode":"250070","StationID":"101498","CDBCode":"CDB_S_101498","StateName":"Nebraska"},"geometry": { "type": "Point","coordinates": [-98.0036,41.6867]}},{"type": "Feature", "id":369, "properties": {"SourceCode":"CDIAC","StationName":"HOLDREGE","StationCode":"253910","StationID":"101521","CDBCode":"CDB_S_101521","StateName":"Nebraska"},"geometry": { "type": "Point","coordinates": [-99.3803,40.4517]}},{"type": "Feature", "id":370, "properties": {"SourceCode":"CDIAC","StationName":"KIMBALL 2NE","StationCode":"254440","StationID":"101523","CDBCode":"CDB_S_101523","StateName":"Nebraska"},"geometry": { "type": "Point","coordinates": [-103.6344,41.2453]}},{"type": "Feature", "id":371, "properties": {"SourceCode":"CDIAC","StationName":"ATLANTIC CITY","StationCode":"280325","StationID":"101562","CDBCode":"CDB_S_101562","StateName":"New Jersey"},"geometry": { "type": "Point","coordinates": [-74.4242,39.3792]}},{"type": "Feature", "id":372, "properties": {"SourceCode":"CDIAC","StationName":"MT PLEASANT 1 SSW","StationCode":"135796","StationID":"101230","CDBCode":"CDB_S_101230","StateName":"Iowa"},"geometry": { "type": "Point","coordinates": [-91.5647,40.9486]}},{"type": "Feature", "id":373, "properties": {"SourceCode":"CDIAC","StationName":"MANHATTAN","StationCode":"144972","StationID":"101255","CDBCode":"CDB_S_101255","StateName":"Kansas"},"geometry": { "type": "Point","coordinates": [-96.5814,39.1972]}},{"type": "Feature", "id":374, "properties": {"SourceCode":"CDIAC","StationName":"BOWLING GREEN RGNL AP","StationCode":"150909","StationID":"101271","CDBCode":"CDB_S_101271","StateName":"Kentucky"},"geometry": { "type": "Point","coordinates": [-86.4239,36.9647]}},{"type": "Feature", "id":375, "properties": {"SourceCode":"CDIAC","StationName":"FRANKFORT DOWNTOWN","StationCode":"153028","StationID":"101273","CDBCode":"CDB_S_101273","StateName":"Kentucky"},"geometry": { "type": "Point","coordinates": [-84.8825,38.2022]}},{"type": "Feature", "id":376, "properties": {"SourceCode":"CDIAC","StationName":"COVINGTON 4 NNW","StationCode":"162151","StationID":"101287","CDBCode":"CDB_S_101287","StateName":"Louisiana"},"geometry": { "type": "Point","coordinates": [-90.1114,30.5272]}},{"type": "Feature", "id":377, "properties": {"SourceCode":"CDIAC","StationName":"CUMBERLAND 2","StationCode":"182282","StationID":"101314","CDBCode":"CDB_S_101314","StateName":"Maryland"},"geometry": { "type": "Point","coordinates": [-78.7561,39.6419]}},{"type": "Feature", "id":378, "properties": {"SourceCode":"CDIAC","StationName":"BEDFORD","StationCode":"190535","StationID":"101328","CDBCode":"CDB_S_101328","StateName":"Massachusetts"},"geometry": { "type": "Point","coordinates": [-71.2833,42.4833]}},{"type": "Feature", "id":379, "properties": {"SourceCode":"CDIAC","StationName":"GREAT BARRINGTON 5 SW","StationCode":"193213","StationID":"101330","CDBCode":"CDB_S_101330","StateName":"Massachusetts"},"geometry": { "type": "Point","coordinates": [-73.4172,42.145]}},{"type": "Feature", "id":380, "properties": {"SourceCode":"CDIAC","StationName":"LAWTON","StationCode":"345063","StationID":"101764","CDBCode":"CDB_S_101764","StateName":"Oklahoma"},"geometry": { "type": "Point","coordinates": [-98.4572,34.6097]}},{"type": "Feature", "id":381, "properties": {"SourceCode":"CDIAC","StationName":"CONDON","StationCode":"351765","StationID":"101789","CDBCode":"CDB_S_101789","StateName":"Oregon"},"geometry": { "type": "Point","coordinates": [-120.1817,45.2325]}},{"type": "Feature", "id":382, "properties": {"SourceCode":"CDIAC","StationName":"GRANTS PASS","StationCode":"353445","StationID":"101798","CDBCode":"CDB_S_101798","StateName":"Oregon"},"geometry": { "type": "Point","coordinates": [-123.3236,42.4244]}},{"type": "Feature", "id":383, "properties": {"SourceCode":"CDIAC","StationName":"PRINEVILLE","StationCode":"356883","StationID":"101814","CDBCode":"CDB_S_101814","StateName":"Oregon"},"geometry": { "type": "Point","coordinates": [-120.8081,44.3022]}},{"type": "Feature", "id":384, "properties": {"SourceCode":"CDIAC","StationName":"ALLENTOWN AP","StationCode":"360106","StationID":"101823","CDBCode":"CDB_S_101823","StateName":"Pennsylvania"},"geometry": { "type": "Point","coordinates": [-75.4492,40.6508]}},{"type": "Feature", "id":385, "properties": {"SourceCode":"CDIAC","StationName":"LEBANON 2 W","StationCode":"364896","StationID":"101830","CDBCode":"CDB_S_101830","StateName":"Pennsylvania"},"geometry": { "type": "Point","coordinates": [-76.4667,40.3333]}},{"type": "Feature", "id":386, "properties": {"SourceCode":"CDIAC","StationName":"YORK 3 SSW PUMP","StationCode":"369933","StationID":"101846","CDBCode":"CDB_S_101846","StateName":"Pennsylvania"},"geometry": { "type": "Point","coordinates": [-76.75,39.9167]}},{"type": "Feature", "id":387, "properties": {"SourceCode":"CDIAC","StationName":"KINGSTON","StationCode":"374266","StationID":"101848","CDBCode":"CDB_S_101848","StateName":"Rhode Island"},"geometry": { "type": "Point","coordinates": [-71.5414,41.4906]}},{"type": "Feature", "id":388, "properties": {"SourceCode":"CDIAC","StationName":"SALUDA","StationCode":"387631","StationID":"101871","CDBCode":"CDB_S_101871","StateName":"South Carolina"},"geometry": { "type": "Point","coordinates": [-81.7747,33.9978]}},{"type": "Feature", "id":389, "properties": {"SourceCode":"CDIAC","StationName":"ACADEMY 2NE","StationCode":"390043","StationID":"101880","CDBCode":"CDB_S_101880","StateName":"South Dakota"},"geometry": { "type": "Point","coordinates": [-99.0631,43.4892]}},{"type": "Feature", "id":390, "properties": {"SourceCode":"CDIAC","StationName":"FORESTBURG 3 NE","StationCode":"393029","StationID":"101888","CDBCode":"CDB_S_101888","StateName":"South Dakota"},"geometry": { "type": "Point","coordinates": [-98.07,44.0422]}},{"type": "Feature", "id":391, "properties": {"SourceCode":"CDIAC","StationName":"HIGHMORE 1 W","StationCode":"393832","StationID":"101890","CDBCode":"CDB_S_101890","StateName":"South Dakota"},"geometry": { "type": "Point","coordinates": [-99.455,44.5222]}},{"type": "Feature", "id":392, "properties": {"SourceCode":"CDIAC","StationName":"LLANO","StationCode":"415272","StationID":"101949","CDBCode":"CDB_S_101949","StateName":"Texas"},"geometry": { "type": "Point","coordinates": [-98.6542,30.7425]}},{"type": "Feature", "id":393, "properties": {"SourceCode":"CDIAC","StationName":"ESCALANTE","StationCode":"422592","StationID":"101974","CDBCode":"CDB_S_101974","StateName":"Utah"},"geometry": { "type": "Point","coordinates": [-111.5978,37.7686]}},